[
  {
    "laboratory": "1",
    "APA Number": "26",
    "ACC": "1",
    "ACC Name": "JOLIMONT LABORATORY 116-118 WELLINGTON PDE EAST MELBOURNE VIC",
    "Suburb / Town": "",
    "From Date": "01/02/1992",
    "To Date": "30/06/2027",
    "latitude": -25.734968,
    "longitude": 134.489563
  },
  {
    "laboratory": "2",
    "APA Number": "42",
    "ACC": "3",
    "ACC Name": "DOREVITCH PATHOLOGY G 32",
    "Suburb / Town": "ST BENDIGO VIC 3550",
    "From Date": "01/02/1992",
    "To Date": "30/06/2027",
    "latitude": -36.750409,
    "longitude": 144.285321
  },
  {
    "laboratory": "3",
    "APA Number": "42",
    "ACC": "15",
    "ACC Name": "LAVERTY PATHOLOGY ROOMS 3 & 6,",
    "Suburb / Town": "AREA SHOP CASTLE HILL NSW 2154",
    "From Date": "01/07/2008",
    "To Date": "30/06/2027",
    "latitude": -33.729562,
    "longitude": 151.022147
  },
  {
    "laboratory": "4",
    "APA Number": "42",
    "ACC": "16",
    "ACC Name": "DOREVITCH PATHOLOGY PATHOLOGY SUITE 102",
    "Suburb / Town": "RD FOSTER VIC 3960",
    "From Date": "01/07/2008",
    "To Date": "30/06/2027",
    "latitude": -38.65748,
    "longitude": 146.204795
  },
  {
    "laboratory": "5",
    "APA Number": "42",
    "ACC": "19",
    "ACC Name": "DOREVITCH PATHOLOGY 157-159",
    "Suburb / Town": "DANDENONG RD CROYDON VIC 3136",
    "From Date": "01/02/1992",
    "To Date": "30/06/2027",
    "latitude": -37.800805,
    "longitude": 145.263508
  },
  {
    "laboratory": "6",
    "APA Number": "42",
    "ACC": "21",
    "ACC Name": "DOREVITCH PATHOLOGY OFFICE SUITE 4005 619",
    "Suburb / Town": "DONCASTER VIC 3108",
    "From Date": "01/02/1992",
    "To Date": "30/06/2027",
    "latitude": -37.788176,
    "longitude": 145.119036
  },
  {
    "laboratory": "7",
    "APA Number": "42",
    "ACC": "28",
    "ACC Name": "DOREVITCH PATHOLOGY PATH RM ROSANNA MED GRP 88",
    "Suburb / Town": "ROSANNA VIC 3084",
    "From Date": "01/07/2008",
    "To Date": "30/06/2027",
    "latitude": -37.746599,
    "longitude": 145.071432
  },
  {
    "laboratory": "8",
    "APA Number": "42",
    "ACC": "29",
    "ACC Name": "DOREVITCH PATHOLOGY 222",
    "Suburb / Town": "RD GLEN WAVERLEY VIC 3150",
    "From Date": "01/02/1992",
    "To Date": "30/06/2027",
    "latitude": -37.87203,
    "longitude": 145.167382
  },
  {
    "laboratory": "9",
    "APA Number": "42",
    "ACC": "30",
    "ACC Name": "QML PATHOLOGY TENANCY B G 41",
    "Suburb / Town": "ST YEPPOON QLD 4703",
    "From Date": "01/07/2007",
    "To Date": "30/06/2027",
    "latitude": -23.131966,
    "longitude": 150.742329
  },
  {
    "laboratory": "10",
    "APA Number": "42",
    "ACC": "31",
    "ACC Name": "DOREVITCH PATHOLOGY PATH RM WONTHAGGI MED GRP 42-",
    "Suburb / Town": "WONTHAGGI VIC 3995",
    "From Date": "01/07/2006",
    "To Date": "30/06/2027",
    "latitude": -38.606066,
    "longitude": 145.591028
  },
  {
    "laboratory": "11",
    "APA Number": "42",
    "ACC": "35",
    "ACC Name": "DOREVITCH PATHOLOGY JOHN FAWKNER PVTE HOSPITAL 275COBURG VIC 3058",
    "Suburb / Town": "",
    "From Date": "01/02/1992",
    "To Date": "30/06/2027",
    "latitude": -25.734968,
    "longitude": 134.489563
  },
  {
    "laboratory": "12",
    "APA Number": "42",
    "ACC": "39",
    "ACC Name": "LAVERTY PATHOLOGY PATH SE 1 BEROWRA VILL MC 1A BEROWRA HEIGHTS NSW",
    "Suburb / Town": "",
    "From Date": "01/07/2006",
    "To Date": "30/06/2027",
    "latitude": -25.734968,
    "longitude": 134.489563
  },
  {
    "laboratory": "13",
    "APA Number": "42",
    "ACC": "42",
    "ACC Name": "DOREVITCH PATHOLOGY PATHOLOGY ROOM SE 4 L 9 20",
    "Suburb / Town": "MELBOURNE VIC 3000",
    "From Date": "01/02/1992",
    "To Date": "30/06/2027",
    "latitude": -37.804617,
    "longitude": 144.769274
  },
  {
    "laboratory": "14",
    "APA Number": "42",
    "ACC": "45",
    "ACC Name": "DOREVITCH PATHOLOGY 53",
    "Suburb / Town": "ST BALLARAT VIC 3350",
    "From Date": "01/07/2006",
    "To Date": "30/06/2027",
    "latitude": -37.558054,
    "longitude": 143.889784
  },
  {
    "laboratory": "15",
    "APA Number": "42",
    "ACC": "46",
    "ACC Name": "DOREVITCH",
    "Suburb / Town": "PATH RM WANGARATTA PVT HOSP WANGARATTA VIC 3676",
    "From Date": "01/07/2007",
    "To Date": "30/06/2027",
    "latitude": -25.313982,
    "longitude": 152.898195
  },
  {
    "laboratory": "16",
    "APA Number": "42",
    "ACC": "49",
    "ACC Name": "QML PATHOLOGY NERANG MALL SHOP T41 25",
    "Suburb / Town": "NERANG QLD 4211",
    "From Date": "01/07/2008",
    "To Date": "30/06/2027",
    "latitude": -27.986504,
    "longitude": 153.338119
  },
  {
    "laboratory": "17",
    "APA Number": "42",
    "ACC": "61",
    "ACC Name": "DOREVITCH PATHOLOGY PATH RM HALLAM FAM PRAC 214",
    "Suburb / Town": "HALLAM VIC 3803",
    "From Date": "01/07/2007",
    "To Date": "30/06/2027",
    "latitude": -38.006329,
    "longitude": 145.273244
  },
  {
    "laboratory": "18",
    "APA Number": "42",
    "ACC": "62",
    "ACC Name": "DOREVITCH PATHOLOGY UNIT 4 212",
    "Suburb / Town": "RD CLAYTON VIC 3168",
    "From Date": "28/10/1992",
    "To Date": "30/06/2027",
    "latitude": -24.929245,
    "longitude": 152.3424
  },
  {
    "laboratory": "19",
    "APA Number": "42",
    "ACC": "67",
    "ACC Name": "LAVERTY PATHOLOGY UNIT 1A 15",
    "Suburb / Town": "ST EDGEWORTH NSW 2285",
    "From Date": "01/07/2006",
    "To Date": "30/06/2027",
    "latitude": -32.924812,
    "longitude": 151.623495
  },
  {
    "laboratory": "20",
    "APA Number": "42",
    "ACC": "73",
    "ACC Name": "DOREVITCH PATHOLOGY PATHOLOGY SUITE 1 79-81",
    "Suburb / Town": "ST ESSENDON VIC 3040",
    "From Date": "01/02/1994",
    "To Date": "30/06/2027",
    "latitude": -37.755012,
    "longitude": 144.915706
  },
  {
    "laboratory": "21",
    "APA Number": "42",
    "ACC": "74",
    "ACC Name": "QML PATHOLOGY SHOP 2 130",
    "Suburb / Town": "ST GOONDIWINDI QLD 4390",
    "From Date": "01/07/2008",
    "To Date": "30/06/2027",
    "latitude": -28.547424,
    "longitude": 150.309603
  },
  {
    "laboratory": "22",
    "APA Number": "42",
    "ACC": "77",
    "ACC Name": "DOREVITCH",
    "Suburb / Town": "WILLIAMSTOWN SPECIALIST CTR RMWILLIAMSTOWN VIC 3016",
    "From Date": "01/02/1994",
    "To Date": "30/06/2027",
    "latitude": -34.669872,
    "longitude": 138.89006
  },
  {
    "laboratory": "23",
    "APA Number": "42",
    "ACC": "78",
    "ACC Name": "DOREVITCH PATHOLOGY PATH RM U 1 2",
    "Suburb / Town": "PL ALBURY NSW 2640",
    "From Date": "19/03/1994",
    "To Date": "30/06/2027",
    "latitude": -36.076371,
    "longitude": 146.88351
  },
  {
    "laboratory": "24",
    "APA Number": "42",
    "ACC": "81",
    "ACC Name": "DOREVITCH PATHOLOGY SUITE 15 214-216",
    "Suburb / Town": "ST HEIDELBERG VIC 3084",
    "From Date": "18/07/1994",
    "To Date": "30/06/2027",
    "latitude": -37.756101,
    "longitude": 145.06525
  },
  {
    "laboratory": "25",
    "APA Number": "42",
    "ACC": "82",
    "ACC Name": "DOREVITCH PATHOLOGY 107",
    "Suburb / Town": "RD FAWKNER VIC 3060",
    "From Date": "01/07/2008",
    "To Date": "30/06/2027",
    "latitude": -37.702137,
    "longitude": 144.969538
  },
  {
    "laboratory": "26",
    "APA Number": "42",
    "ACC": "83",
    "ACC Name": "DOREVITCH PATHOLOGY PATH RM LAKKIS OPTOMETRY 232",
    "Suburb / Town": "EAST VIC 3033",
    "From Date": "03/10/1994",
    "To Date": "30/06/2027",
    "latitude": -37.739018,
    "longitude": 144.85889
  },
  {
    "laboratory": "27",
    "APA Number": "42",
    "ACC": "85",
    "ACC Name": "LAVERTY PATHOLOGY PATHOLOGY ROOM 1 SHOP 17 355",
    "Suburb / Town": "NEWPORT NSW 2106",
    "From Date": "01/07/2007",
    "To Date": "30/06/2027",
    "latitude": -33.658306,
    "longitude": 151.31735
  },
  {
    "laboratory": "28",
    "APA Number": "42",
    "ACC": "87",
    "ACC Name": "DOREVITCH PATHOLOGY PATH RM NUNAWADING CLINIC 176",
    "Suburb / Town": "NUNAWADING VIC 3131",
    "From Date": "01/07/2008",
    "To Date": "30/06/2027",
    "latitude": -37.81838,
    "longitude": 145.176131
  },
  {
    "laboratory": "29",
    "APA Number": "42",
    "ACC": "89",
    "ACC Name": "LAVERTY PATHOLOGY PATH RM LINDFIELD FAM MED SE 26",
    "Suburb / Town": "LINDFIELD NSW 2070",
    "From Date": "01/07/2008",
    "To Date": "30/06/2027",
    "latitude": -33.77488,
    "longitude": 151.169201
  },
  {
    "laboratory": "30",
    "APA Number": "42",
    "ACC": "91",
    "ACC Name": "DOREVITCH PATHOLOGY GROUND FLOOR SUITE 1 G 262",
    "Suburb / Town": "WAVERLEY VIC 3150",
    "From Date": "01/07/2007",
    "To Date": "30/06/2027",
    "latitude": -37.884852,
    "longitude": 145.189612
  },
  {
    "laboratory": "31",
    "APA Number": "42",
    "ACC": "92",
    "ACC Name": "LAVERTY PATHOLOGY PATH R&W SYD NEURO &",
    "Suburb / Town": "S SE MIRANDA NSW 2228",
    "From Date": "01/07/2007",
    "To Date": "30/06/2027",
    "latitude": -28.839913,
    "longitude": 153.440804
  },
  {
    "laboratory": "32",
    "APA Number": "42",
    "ACC": "94",
    "ACC Name": "DOREVITCH PATHOLOGY 602",
    "Suburb / Town": "RD ELSTERNWICK VIC 3185",
    "From Date": "13/11/1996",
    "To Date": "30/06/2027",
    "latitude": -35.060819,
    "longitude": 138.586738
  },
  {
    "laboratory": "33",
    "APA Number": "42",
    "ACC": "99",
    "ACC Name": "LAVERTY PATHOLOGY PATH RM FAIRFIELD DIST M/C L 1 147FAIRFIELD HEIGHT NSW",
    "Suburb / Town": "",
    "From Date": "01/07/2008",
    "To Date": "30/06/2027",
    "latitude": -25.734968,
    "longitude": 134.489563
  },
  {
    "laboratory": "34",
    "APA Number": "42",
    "ACC": "102",
    "ACC Name": "LAVERTY PATHOLOGY SE 3 42-46",
    "Suburb / Town": "ST CARDIFF NSW 2285",
    "From Date": "01/07/2007",
    "To Date": "30/06/2027",
    "latitude": -32.939967,
    "longitude": 151.660179
  },
  {
    "laboratory": "35",
    "APA Number": "42",
    "ACC": "109",
    "ACC Name": "QML PATHOLOGY SPRING LAKE VILLAGE SH 7B 31 SPRINGFIELD LAKE QLD",
    "Suburb / Town": "",
    "From Date": "01/07/2007",
    "To Date": "30/06/2027",
    "latitude": -25.734968,
    "longitude": 134.489563
  },
  {
    "laboratory": "36",
    "APA Number": "42",
    "ACC": "111",
    "ACC Name": "LAVERTY PATHOLOGY HORNSBY HOUSE SE G4A 32-34",
    "Suburb / Town": "HORNSBY NSW 2077",
    "From Date": "01/07/2008",
    "To Date": "30/06/2027",
    "latitude": -33.707866,
    "longitude": 151.099779
  },
  {
    "laboratory": "37",
    "APA Number": "42",
    "ACC": "112",
    "ACC Name": "LAVERTY PATHOLOGY G 32 WALTER MORRIS CL COFFS HARBOUR NSW",
    "Suburb / Town": "",
    "From Date": "01/07/2007",
    "To Date": "30/06/2027",
    "latitude": -25.734968,
    "longitude": 134.489563
  },
  {
    "laboratory": "38",
    "APA Number": "42",
    "ACC": "117",
    "ACC Name": "DOREVITCH PATHOLOGY EVANS STREET CLINIC 79-81",
    "Suburb / Town": "SUNBURY VIC 3429",
    "From Date": "30/12/1996",
    "To Date": "30/06/2027",
    "latitude": -37.606683,
    "longitude": 144.769695
  },
  {
    "laboratory": "39",
    "APA Number": "42",
    "ACC": "121",
    "ACC Name": "QML PATHOLOGY TNCY 54 TAIGUM SQUARE 217",
    "Suburb / Town": "TAIGUM QLD 4018",
    "From Date": "01/07/2007",
    "To Date": "30/06/2027",
    "latitude": -27.337817,
    "longitude": 153.043766
  },
  {
    "laboratory": "40",
    "APA Number": "42",
    "ACC": "123",
    "ACC Name": "DOREVITCH PATHOLOGY PATH RM BRIGHT M/C 115",
    "Suburb / Town": "ST BRIGHT VIC 3741",
    "From Date": "10/02/1997",
    "To Date": "30/06/2027",
    "latitude": -36.728758,
    "longitude": 146.95546
  },
  {
    "laboratory": "41",
    "APA Number": "42",
    "ACC": "125",
    "ACC Name": "DOREVITCH PATHOLOGY PATH RM CLIFTON HILL CLINIC 302",
    "Suburb / Town": "HILL VIC 3068",
    "From Date": "01/03/1997",
    "To Date": "30/06/2027",
    "latitude": -34.819545,
    "longitude": 138.734612
  },
  {
    "laboratory": "42",
    "APA Number": "42",
    "ACC": "126",
    "ACC Name": "DOREVITCH PATHOLOGY HEATHCOTE HOSPITAL MED CTR 39-",
    "Suburb / Town": "HEATHCOTE VIC 3523",
    "From Date": "01/07/2008",
    "To Date": "30/06/2027",
    "latitude": -36.924347,
    "longitude": 144.7104
  },
  {
    "laboratory": "43",
    "APA Number": "42",
    "ACC": "132",
    "ACC Name": "DOREVITCH PATHOLOGY PATHOLOGY ROOM U 3 22",
    "Suburb / Town": "FRANKSTON VIC 3199",
    "From Date": "07/04/1997",
    "To Date": "30/06/2027",
    "latitude": -34.304222,
    "longitude": 139.22356
  },
  {
    "laboratory": "44",
    "APA Number": "42",
    "ACC": "142",
    "ACC Name": "DOREVITCH",
    "Suburb / Town": "PATH RM GLADSTONE PARK SPEC TULLAMARINE VIC 3043",
    "From Date": "09/02/1998",
    "To Date": "30/06/2027",
    "latitude": -33.268875,
    "longitude": 138.35677
  },
  {
    "laboratory": "45",
    "APA Number": "42",
    "ACC": "144",
    "ACC Name": "DOREVITCH PATHOLOGY SE 1.6 & 2.1 THE GARDENS 470",
    "Suburb / Town": "ALBURY NSW 2640",
    "From Date": "01/07/2007",
    "To Date": "30/06/2027",
    "latitude": -36.080666,
    "longitude": 146.91571
  },
  {
    "laboratory": "46",
    "APA Number": "42",
    "ACC": "149",
    "ACC Name": "DOREVITCH PATHOLOGY PATH SE MYHEALTH HAMPTON 3",
    "Suburb / Town": "HAMPTON VIC 3188",
    "From Date": "01/02/1999",
    "To Date": "30/06/2027",
    "latitude": -37.938318,
    "longitude": 145.002355
  },
  {
    "laboratory": "47",
    "APA Number": "42",
    "ACC": "151",
    "ACC Name": "DOREVITCH PATHOLOGY PATH ROOM MOUNT BEAUTY M/C 2D",
    "Suburb / Town": "BEAUTY VIC 3699",
    "From Date": "06/04/1999",
    "To Date": "30/06/2027",
    "latitude": -36.741688,
    "longitude": 147.171105
  },
  {
    "laboratory": "48",
    "APA Number": "42",
    "ACC": "161",
    "ACC Name": "DOREVITCH PATHOLOGY 12A",
    "Suburb / Town": "JOHNS AVE SPRINGVALE VIC 3171",
    "From Date": "03/04/2000",
    "To Date": "30/06/2027",
    "latitude": -37.952388,
    "longitude": 145.149648
  },
  {
    "laboratory": "49",
    "APA Number": "42",
    "ACC": "176",
    "ACC Name": "DOREVITCH PATHOLOGY ST ALBANS FAMILY DRS CLINIC 165-",
    "Suburb / Town": "ALBANS VIC 3021",
    "From Date": "01/07/2007",
    "To Date": "30/06/2027",
    "latitude": -37.76029,
    "longitude": 144.812087
  },
  {
    "laboratory": "50",
    "APA Number": "42",
    "ACC": "178",
    "ACC Name": "DOREVITCH PATHOLOGY OUR LADY OF RIVERGUM MC 3",
    "Suburb / Town": "PARK VIC 3082",
    "From Date": "01/02/2001",
    "To Date": "30/06/2027",
    "latitude": -37.662163,
    "longitude": 145.077171
  },
  {
    "laboratory": "51",
    "APA Number": "42",
    "ACC": "180",
    "ACC Name": "DOREVITCH PATHOLOGY PTH RMS 1&2",
    "Suburb / Town": "WARREN CL U NARRE WARREN VIC 3805",
    "From Date": "26/04/2001",
    "To Date": "30/06/2027",
    "latitude": -38.032928,
    "longitude": 145.311556
  },
  {
    "laboratory": "52",
    "APA Number": "42",
    "ACC": "181",
    "ACC Name": "DOREVITCH PATHOLOGY 73",
    "Suburb / Town": "ST MOE VIC 3825",
    "From Date": "01/07/2007",
    "To Date": "30/06/2027",
    "latitude": -27.784283,
    "longitude": 153.003225
  },
  {
    "laboratory": "53",
    "APA Number": "42",
    "ACC": "182",
    "ACC Name": "DOREVITCH",
    "Suburb / Town": "PATH RM MORNINGTON MED GRP MORNINGTON VIC 3931",
    "From Date": "28/05/2001",
    "To Date": "30/06/2027",
    "latitude": -33.182433,
    "longitude": 115.981861
  },
  {
    "laboratory": "54",
    "APA Number": "42",
    "ACC": "183",
    "ACC Name": "DOREVITCH PATHOLOGY PATH RMS RINGWOOD PRIV HOSP RINGWOOD EAST VIC",
    "Suburb / Town": "",
    "From Date": "02/07/2001",
    "To Date": "30/06/2027",
    "latitude": -25.734968,
    "longitude": 134.489563
  },
  {
    "laboratory": "55",
    "APA Number": "42",
    "ACC": "188",
    "ACC Name": "DOREVITCH",
    "Suburb / Town": "PATH SE STH EASTN PRIV HOSP G NOBLE PARK VIC 3174",
    "From Date": "02/07/2001",
    "To Date": "30/06/2027",
    "latitude": -37.565434,
    "longitude": 140.702948
  },
  {
    "laboratory": "56",
    "APA Number": "42",
    "ACC": "189",
    "ACC Name": "DOREVITCH PATHOLOGY BLACKBURN SOUTH RADIOLOGY 204BLACKBURN SOUTH VIC",
    "Suburb / Town": "",
    "From Date": "30/07/2001",
    "To Date": "30/06/2027",
    "latitude": -25.734968,
    "longitude": 134.489563
  },
  {
    "laboratory": "57",
    "APA Number": "42",
    "ACC": "190",
    "ACC Name": "DOREVITCH PATHOLOGY PATH SE WEST BRUNSWICK CLN 9 BRUNSWICK WEST VIC",
    "Suburb / Town": "",
    "From Date": "01/12/2001",
    "To Date": "30/06/2027",
    "latitude": -25.734968,
    "longitude": 134.489563
  },
  {
    "laboratory": "58",
    "APA Number": "42",
    "ACC": "192",
    "ACC Name": "LAVERTY PATHOLOGY PATH RM LINDFIELD MED SE 6 12-18",
    "Suburb / Town": "LINDFIELD NSW 2070",
    "From Date": "01/07/2008",
    "To Date": "30/06/2027",
    "latitude": -33.77488,
    "longitude": 151.169201
  },
  {
    "laboratory": "59",
    "APA Number": "42",
    "ACC": "194",
    "ACC Name": "DOREVITCH PATHOLOGY PATH SE WHEELERS HILL CLC 847",
    "Suburb / Town": "HILL VIC 3150",
    "From Date": "01/12/2001",
    "To Date": "30/06/2027",
    "latitude": -37.910031,
    "longitude": 145.188471
  },
  {
    "laboratory": "60",
    "APA Number": "42",
    "ACC": "198",
    "ACC Name": "DOREVITCH PATHOLOGY HAMPTON PARK SPEC SUITES SE 7",
    "Suburb / Town": "PARK VIC 3976",
    "From Date": "01/12/2001",
    "To Date": "30/06/2027",
    "latitude": -38.031975,
    "longitude": 145.265976
  },
  {
    "laboratory": "61",
    "APA Number": "42",
    "ACC": "206",
    "ACC Name": "DOREVITCH",
    "Suburb / Town": "BALLARAT DAY PROCEDURE CTR WENDOUREE VIC 3355",
    "From Date": "04/03/2002",
    "To Date": "30/06/2027",
    "latitude": -27.784521,
    "longitude": 153.003377
  },
  {
    "laboratory": "62",
    "APA Number": "42",
    "ACC": "208",
    "ACC Name": "DOREVITCH PATHOLOGY 329",
    "Suburb / Town": "RD ORMOND VIC 3204",
    "From Date": "25/02/2002",
    "To Date": "30/06/2027",
    "latitude": -37.918991,
    "longitude": 145.041658
  },
  {
    "laboratory": "63",
    "APA Number": "42",
    "ACC": "209",
    "ACC Name": "DOREVITCH",
    "Suburb / Town": "PATH RM BEECHWORTH SURGERY BEECHWORTH VIC 3747",
    "From Date": "08/04/2002",
    "To Date": "30/06/2027",
    "latitude": -36.359558,
    "longitude": 146.687106
  },
  {
    "laboratory": "64",
    "APA Number": "42",
    "ACC": "210",
    "ACC Name": "QML PATHOLOGY U 2 633",
    "Suburb / Town": "RD GREENSLOPES QLD 4120",
    "From Date": "01/07/2008",
    "To Date": "30/06/2027",
    "latitude": -27.504663,
    "longitude": 153.047118
  },
  {
    "laboratory": "65",
    "APA Number": "42",
    "ACC": "211",
    "ACC Name": "LAVERTY PATHOLOGY PATH RM 3 SPECIALIST M/C 11",
    "Suburb / Town": "BLACKTOWN NSW 2148",
    "From Date": "01/07/2008",
    "To Date": "30/06/2027",
    "latitude": -33.77289,
    "longitude": 150.90285
  },
  {
    "laboratory": "66",
    "APA Number": "42",
    "ACC": "213",
    "ACC Name": "DOREVITCH PATHOLOGY WESTERN DISTRICT HEALTH 20",
    "Suburb / Town": "HAMILTON VIC 3300",
    "From Date": "22/05/2002",
    "To Date": "30/06/2027",
    "latitude": -34.22248,
    "longitude": 138.87723
  },
  {
    "laboratory": "67",
    "APA Number": "42",
    "ACC": "214",
    "ACC Name": "DOREVITCH",
    "Suburb / Town": "PATH SE EASTERN GASTRO SPEC SURREY HILLS VIC 3127",
    "From Date": "03/06/2002",
    "To Date": "30/06/2027",
    "latitude": -37.821431,
    "longitude": 145.09496
  },
  {
    "laboratory": "68",
    "APA Number": "42",
    "ACC": "231",
    "ACC Name": "QML PATHOLOGY CHERMSIDE SPECIALIST CTR 688",
    "Suburb / Town": "CHERMSIDE QLD 4032",
    "From Date": "01/10/2002",
    "To Date": "30/06/2027",
    "latitude": -34.908654,
    "longitude": 138.60286
  },
  {
    "laboratory": "69",
    "APA Number": "42",
    "ACC": "234",
    "ACC Name": "QML PATHOLOGY PATH RM SHAILER PARK MC SE 3/3A",
    "Suburb / Town": "LOGANHOLME QLD 4129",
    "From Date": "01/10/2002",
    "To Date": "30/06/2027",
    "latitude": -34.908544,
    "longitude": 138.603057
  },
  {
    "laboratory": "70",
    "APA Number": "42",
    "ACC": "238",
    "ACC Name": "QML PATHOLOGY TRINITY HOUSE SE 3 39-41",
    "Suburb / Town": "CALOUNDRA QLD 4551",
    "From Date": "01/10/2002",
    "To Date": "30/06/2027",
    "latitude": -26.792195,
    "longitude": 153.123302
  },
  {
    "laboratory": "71",
    "APA Number": "42",
    "ACC": "239",
    "ACC Name": "QML PATHOLOGY NOOSA DISTRICT HOSPITAL 50",
    "Suburb / Town": "COOROY QLD 4563",
    "From Date": "01/10/2002",
    "To Date": "30/06/2027",
    "latitude": -34.90855,
    "longitude": 138.603046
  },
  {
    "laboratory": "72",
    "APA Number": "42",
    "ACC": "244",
    "ACC Name": "QML PATHOLOGY SHOP 1 591",
    "Suburb / Town": "RD MORNINGSIDE QLD 4170",
    "From Date": "01/10/2002",
    "To Date": "30/06/2027",
    "latitude": -27.474341,
    "longitude": 153.066573
  },
  {
    "laboratory": "73",
    "APA Number": "42",
    "ACC": "247",
    "ACC Name": "QML PATHOLOGY PENINSULA SPECIALIST CENTRE 93 KIPPA-RING QLD 4021",
    "Suburb / Town": "",
    "From Date": "01/10/2002",
    "To Date": "30/06/2027",
    "latitude": -25.734968,
    "longitude": 134.489563
  },
  {
    "laboratory": "74",
    "APA Number": "42",
    "ACC": "248",
    "ACC Name": "QML PATHOLOGY SMARTCLINICS THE GAP SE 5 23",
    "Suburb / Town": "GAP QLD 4061",
    "From Date": "01/07/2008",
    "To Date": "30/06/2027",
    "latitude": -34.908543,
    "longitude": 138.603058
  },
  {
    "laboratory": "75",
    "APA Number": "42",
    "ACC": "253",
    "ACC Name": "QML PATHOLOGY STRATHPINE SPEC CTR U 13 32",
    "Suburb / Town": "STRATHPINE QLD 4500",
    "From Date": "01/10/2002",
    "To Date": "30/06/2027",
    "latitude": -34.908658,
    "longitude": 138.602854
  },
  {
    "laboratory": "76",
    "APA Number": "42",
    "ACC": "256",
    "ACC Name": "QML PATHOLOGY THE TERRACE 14-16",
    "Suburb / Town": "ST IPSWICH QLD 4305",
    "From Date": "01/10/2002",
    "To Date": "30/06/2027",
    "latitude": -27.615234,
    "longitude": 152.75942
  },
  {
    "laboratory": "77",
    "APA Number": "42",
    "ACC": "259",
    "ACC Name": "QML PATHOLOGY PATH ROOM CAIRNS M/C 120",
    "Suburb / Town": "CAIRNS QLD 4870",
    "From Date": "01/10/2002",
    "To Date": "30/06/2027",
    "latitude": -16.910061,
    "longitude": 145.759066
  },
  {
    "laboratory": "78",
    "APA Number": "42",
    "ACC": "260",
    "ACC Name": "QML PATHOLOGY 175",
    "Suburb / Town": "ST MAREEBA QLD 4880",
    "From Date": "01/10/2002",
    "To Date": "30/06/2027",
    "latitude": -34.90866,
    "longitude": 138.602849
  },
  {
    "laboratory": "79",
    "APA Number": "42",
    "ACC": "262",
    "ACC Name": "QML PATHOLOGY PATH ROOM SE 1 15-17",
    "Suburb / Town": "IPSWICH QLD 4305",
    "From Date": "01/10/2002",
    "To Date": "30/06/2027",
    "latitude": -27.617447,
    "longitude": 152.759239
  },
  {
    "laboratory": "80",
    "APA Number": "42",
    "ACC": "264",
    "ACC Name": "QML",
    "Suburb / Town": "PM RUNAWAY BAY DR SURG SHOP RUNAWAY BAY QLD 4216",
    "From Date": "01/10/2002",
    "To Date": "30/06/2027",
    "latitude": -27.910773,
    "longitude": 153.405517
  },
  {
    "laboratory": "81",
    "APA Number": "42",
    "ACC": "265",
    "ACC Name": "QML PATHOLOGY SUITES 8 & 9 120",
    "Suburb / Town": "ST CLEVELAND QLD 4163",
    "From Date": "01/10/2002",
    "To Date": "30/06/2027",
    "latitude": -27.53337,
    "longitude": 153.266556
  },
  {
    "laboratory": "82",
    "APA Number": "42",
    "ACC": "268",
    "ACC Name": "DOREVITCH PATHOLOGY PATH RM MT EVELYN MED SRGY 29",
    "Suburb / Town": "EVELYN VIC 3796",
    "From Date": "01/07/2008",
    "To Date": "30/06/2027",
    "latitude": -34.650192,
    "longitude": 150.332743
  },
  {
    "laboratory": "83",
    "APA Number": "42",
    "ACC": "270",
    "ACC Name": "QML PATHOLOGY SHOP 10 109",
    "Suburb / Town": "CLEVELAND RD CAPALABA QLD 4157",
    "From Date": "01/10/2002",
    "To Date": "30/06/2027",
    "latitude": -27.521172,
    "longitude": 153.198209
  },
  {
    "laboratory": "84",
    "APA Number": "42",
    "ACC": "273",
    "ACC Name": "QML PATHOLOGY QML PATHOLOGY SHOP 2 876",
    "Suburb / Town": "CARINA QLD 4152",
    "From Date": "01/10/2002",
    "To Date": "30/06/2027",
    "latitude": -34.908655,
    "longitude": 138.602858
  },
  {
    "laboratory": "85",
    "APA Number": "42",
    "ACC": "275",
    "ACC Name": "QML PATHOLOGY SHOP 1 3",
    "Suburb / Town": "ST CABOOLTURE QLD 4510",
    "From Date": "01/10/2002",
    "To Date": "30/06/2027",
    "latitude": -27.082333,
    "longitude": 152.950077
  },
  {
    "laboratory": "86",
    "APA Number": "42",
    "ACC": "281",
    "ACC Name": "QML PATHOLOGY PATH RM ASHGROVE SPEC M/C",
    "Suburb / Town": "ASHGROVE QLD 4060",
    "From Date": "01/10/2002",
    "To Date": "30/06/2027",
    "latitude": -34.908655,
    "longitude": 138.602859
  },
  {
    "laboratory": "87",
    "APA Number": "42",
    "ACC": "283",
    "ACC Name": "QML PATHOLOGY PATH RM SE 2 92 GRANGE RD EASTERN HEIGHTS QLD",
    "Suburb / Town": "",
    "From Date": "01/10/2002",
    "To Date": "30/06/2027",
    "latitude": -25.734968,
    "longitude": 134.489563
  },
  {
    "laboratory": "88",
    "APA Number": "42",
    "ACC": "291",
    "ACC Name": "DOREVITCH",
    "Suburb / Town": "KOOWEERUP REGIONAL HLTH SVC KOOWEERUP VIC 3981",
    "From Date": "01/07/2008",
    "To Date": "30/06/2027",
    "latitude": -27.784204,
    "longitude": 153.003175
  },
  {
    "laboratory": "89",
    "APA Number": "42",
    "ACC": "292",
    "ACC Name": "QML PATHOLOGY U 3 CAIRNS DAY SURGERY 156-160",
    "Suburb / Town": "CAIRNS QLD 4870",
    "From Date": "01/10/2002",
    "To Date": "30/06/2027",
    "latitude": -16.910061,
    "longitude": 145.759066
  },
  {
    "laboratory": "90",
    "APA Number": "42",
    "ACC": "293",
    "ACC Name": "QML",
    "Suburb / Town": "MEADOWBROOK SHOPPING VLG MEADOWBROOK QLD 4131",
    "From Date": "01/10/2002",
    "To Date": "30/06/2027",
    "latitude": -34.908544,
    "longitude": 138.603056
  },
  {
    "laboratory": "91",
    "APA Number": "42",
    "ACC": "305",
    "ACC Name": "QML PATHOLOGY OXENFORD MED & PROF CTR SE 3 5",
    "Suburb / Town": "OXENFORD QLD 4210",
    "From Date": "01/10/2002",
    "To Date": "30/06/2027",
    "latitude": -27.885355,
    "longitude": 153.311891
  },
  {
    "laboratory": "92",
    "APA Number": "42",
    "ACC": "308",
    "ACC Name": "QML PATHOLOGY 11",
    "Suburb / Town": "ST TULLY QLD 4854",
    "From Date": "01/10/2002",
    "To Date": "30/06/2027",
    "latitude": -17.933478,
    "longitude": 145.922027
  },
  {
    "laboratory": "93",
    "APA Number": "42",
    "ACC": "311",
    "ACC Name": "LAVERTY PATHOLOGY SE 3 G 20-24",
    "Suburb / Town": "ST MIRANDA NSW 2228",
    "From Date": "01/07/2008",
    "To Date": "30/06/2027",
    "latitude": -34.036774,
    "longitude": 151.103523
  },
  {
    "laboratory": "94",
    "APA Number": "42",
    "ACC": "312",
    "ACC Name": "QML PATHOLOGY JINDALEE ALLSPORTS S/C SHOP 13",
    "Suburb / Town": "JINDALEE QLD 4074",
    "From Date": "01/10/2002",
    "To Date": "30/06/2027",
    "latitude": -27.530354,
    "longitude": 152.943215
  },
  {
    "laboratory": "95",
    "APA Number": "42",
    "ACC": "316",
    "ACC Name": "LAVERTY PATHOLOGY PATH RMS 2&6",
    "Suburb / Town": "MC SE MERRYLANDS NSW 2160",
    "From Date": "01/07/2008",
    "To Date": "30/06/2027",
    "latitude": -33.831497,
    "longitude": 150.966192
  },
  {
    "laboratory": "96",
    "APA Number": "42",
    "ACC": "317",
    "ACC Name": "QML PATHOLOGY NORTH WEST SPECIALIST CNTR SE 8EVERTON",
    "Suburb / Town": "PARK QLD 4053",
    "From Date": "01/10/2002",
    "To Date": "30/06/2027",
    "latitude": -34.908543,
    "longitude": 138.603058
  },
  {
    "laboratory": "97",
    "APA Number": "42",
    "ACC": "318",
    "ACC Name": "QML PATHOLOGY CORINDA PROFESSIONAL CNTR SE 2CORINDA QLD 4075",
    "Suburb / Town": "",
    "From Date": "01/10/2002",
    "To Date": "30/06/2027",
    "latitude": -25.734968,
    "longitude": 134.489563
  },
  {
    "laboratory": "98",
    "APA Number": "42",
    "ACC": "320",
    "ACC Name": "QML PATHOLOGY LEASE 48 KENMORE VILLAGE 9",
    "Suburb / Town": "KENMORE QLD 4069",
    "From Date": "01/10/2002",
    "To Date": "30/06/2027",
    "latitude": -27.523225,
    "longitude": 152.944351
  },
  {
    "laboratory": "99",
    "APA Number": "42",
    "ACC": "325",
    "ACC Name": "QML PATHOLOGY ALEXANDRA HOUSE SE 14 G 201",
    "Suburb / Town": "HILL QLD 4000",
    "From Date": "01/10/2002",
    "To Date": "30/06/2027",
    "latitude": -27.455303,
    "longitude": 153.027665
  },
  {
    "laboratory": "100",
    "APA Number": "42",
    "ACC": "326",
    "ACC Name": "QML PATHOLOGY COOLOOLA SPEC & DIAG CTR 74",
    "Suburb / Town": "GYMPIE QLD 4570",
    "From Date": "01/10/2002",
    "To Date": "30/06/2027",
    "latitude": -34.908658,
    "longitude": 138.602853
  },
  {
    "laboratory": "101",
    "APA Number": "42",
    "ACC": "328",
    "ACC Name": "QML PATHOLOGY ROSEWOOD PLAZA SHOP 1 18-20",
    "Suburb / Town": "ROSEWOOD QLD 4340",
    "From Date": "01/07/2008",
    "To Date": "30/06/2027",
    "latitude": -35.67102,
    "longitude": 147.86424
  },
  {
    "laboratory": "102",
    "APA Number": "42",
    "ACC": "330",
    "ACC Name": "QML PATHOLOGY THE MED DIAG CTR LOTS 8 & 9 7",
    "Suburb / Town": "MINYAMA QLD 4575",
    "From Date": "01/10/2002",
    "To Date": "30/06/2027",
    "latitude": -34.908551,
    "longitude": 138.603045
  },
  {
    "laboratory": "103",
    "APA Number": "42",
    "ACC": "332",
    "ACC Name": "QML PATHOLOGY SHOPS 1 2A & 2B 121",
    "Suburb / Town": "ST EMERALD QLD 4720",
    "From Date": "01/10/2002",
    "To Date": "30/06/2027",
    "latitude": -23.525977,
    "longitude": 148.162029
  },
  {
    "laboratory": "104",
    "APA Number": "42",
    "ACC": "334",
    "ACC Name": "QML PATHOLOGY MAROOCHYDORE DIAG CNTR 148 MAROOCHYDORE QLD",
    "Suburb / Town": "",
    "From Date": "01/10/2002",
    "To Date": "30/06/2027",
    "latitude": -25.734968,
    "longitude": 134.489563
  },
  {
    "laboratory": "105",
    "APA Number": "42",
    "ACC": "337",
    "ACC Name": "QML PATHOLOGY PORT VILLAGE MED CTR SH 17 11-17",
    "Suburb / Town": "DOUGLAS QLD 4877",
    "From Date": "01/10/2002",
    "To Date": "30/06/2027",
    "latitude": -34.908555,
    "longitude": 138.603038
  },
  {
    "laboratory": "106",
    "APA Number": "42",
    "ACC": "338",
    "ACC Name": "QML PATHOLOGY LAIDLEY SHOPPING CENTRE SHOP 4LAIDLEY QLD 4341",
    "Suburb / Town": "",
    "From Date": "01/10/2002",
    "To Date": "30/06/2027",
    "latitude": -25.734968,
    "longitude": 134.489563
  },
  {
    "laboratory": "107",
    "APA Number": "42",
    "ACC": "340",
    "ACC Name": "LAVERTY PATHOLOGY PATH SE 1",
    "Suburb / Town": "MC SHOP EASTGARDENS NSW 2036",
    "From Date": "01/07/2008",
    "To Date": "30/06/2027",
    "latitude": -33.944065,
    "longitude": 151.22614
  },
  {
    "laboratory": "108",
    "APA Number": "42",
    "ACC": "341",
    "ACC Name": "QML PATHOLOGY NOOSA PRIVATE HOSPITAL 111",
    "Suburb / Town": "NOOSAVILLE QLD 4566",
    "From Date": "01/10/2002",
    "To Date": "30/06/2027",
    "latitude": -34.908658,
    "longitude": 138.602853
  },
  {
    "laboratory": "109",
    "APA Number": "42",
    "ACC": "342",
    "ACC Name": "QML PATHOLOGY TENANCY LG3 PACIFIC PVT CLC 119-",
    "Suburb / Town": "SOUTHPORT QLD 4215",
    "From Date": "01/10/2002",
    "To Date": "30/06/2027",
    "latitude": -34.908545,
    "longitude": 138.603054
  },
  {
    "laboratory": "110",
    "APA Number": "42",
    "ACC": "352",
    "ACC Name": "QML PATHOLOGY SHOP 4 46",
    "Suburb / Town": "PDE GOLDEN BEACH QLD 4551",
    "From Date": "01/10/2002",
    "To Date": "30/06/2027",
    "latitude": -26.825027,
    "longitude": 153.119137
  },
  {
    "laboratory": "111",
    "APA Number": "42",
    "ACC": "353",
    "ACC Name": "QML PATHOLOGY SHOP E21 VICTORIA POINT SC 505",
    "Suburb / Town": "POINT QLD 4165",
    "From Date": "01/10/2002",
    "To Date": "30/06/2027",
    "latitude": -27.584593,
    "longitude": 153.29764
  },
  {
    "laboratory": "112",
    "APA Number": "42",
    "ACC": "354",
    "ACC Name": "QML PATHOLOGY ST ANDREWS PLACE SE 279 G 33",
    "Suburb / Town": "HILL QLD 4000",
    "From Date": "01/10/2002",
    "To Date": "30/06/2027",
    "latitude": -27.455303,
    "longitude": 153.027665
  },
  {
    "laboratory": "113",
    "APA Number": "42",
    "ACC": "355",
    "ACC Name": "QML PATHOLOGY SHOP 9 280",
    "Suburb / Town": "RD WISHART QLD 4122",
    "From Date": "01/10/2002",
    "To Date": "30/06/2027",
    "latitude": -27.549789,
    "longitude": 153.091238
  },
  {
    "laboratory": "114",
    "APA Number": "42",
    "ACC": "356",
    "ACC Name": "QML PATHOLOGY TENANCY B TOWER M/C 241",
    "Suburb / Town": "LAKE QLD 4078",
    "From Date": "01/10/2002",
    "To Date": "30/06/2027",
    "latitude": -34.908655,
    "longitude": 138.602859
  },
  {
    "laboratory": "115",
    "APA Number": "42",
    "ACC": "361",
    "ACC Name": "QML",
    "Suburb / Town": "PATH RM CALAMVALE MED CNTR CALAMVALE QLD 4116",
    "From Date": "01/10/2002",
    "To Date": "30/06/2027",
    "latitude": -34.908655,
    "longitude": 138.602859
  },
  {
    "laboratory": "116",
    "APA Number": "42",
    "ACC": "366",
    "ACC Name": "QML PATHOLOGY U 2 28",
    "Suburb / Town": "ST ROCKHAMPTON QLD 4700",
    "From Date": "01/10/2002",
    "To Date": "30/06/2027",
    "latitude": -23.381294,
    "longitude": 150.514063
  },
  {
    "laboratory": "117",
    "APA Number": "42",
    "ACC": "373",
    "ACC Name": "QML PATHOLOGY HOLY SPIRIT NORTHSIDE PH SE 4",
    "Suburb / Town": "CHERMSIDE QLD 4032",
    "From Date": "01/10/2002",
    "To Date": "30/06/2027",
    "latitude": -34.908654,
    "longitude": 138.60286
  },
  {
    "laboratory": "118",
    "APA Number": "42",
    "ACC": "374",
    "ACC Name": "QML PATHOLOGY QML PATHOLOGY CLINIC SHOP 2A 11TIN",
    "Suburb / Town": "BAY QLD 4580",
    "From Date": "01/10/2002",
    "To Date": "30/06/2027",
    "latitude": -34.908658,
    "longitude": 138.602853
  },
  {
    "laboratory": "119",
    "APA Number": "42",
    "ACC": "379",
    "ACC Name": "QML",
    "Suburb / Town": "PATH RM GOULDING CENTRE SHOP WARWICK QLD 4370",
    "From Date": "01/10/2002",
    "To Date": "30/06/2027",
    "latitude": -34.908657,
    "longitude": 138.602856
  },
  {
    "laboratory": "120",
    "APA Number": "42",
    "ACC": "382",
    "ACC Name": "LAVERTY PATHOLOGY SE 3 130",
    "Suburb / Town": "HWY SYLVANIA NSW 2224",
    "From Date": "01/07/2008",
    "To Date": "30/06/2027",
    "latitude": -34.020062,
    "longitude": 151.090347
  },
  {
    "laboratory": "121",
    "APA Number": "42",
    "ACC": "393",
    "ACC Name": "DOREVITCH PATHOLOGY PATH RM PARK AVE MED CNTR 3-7",
    "Suburb / Town": "CRANBOURNE VIC 3977",
    "From Date": "01/07/2008",
    "To Date": "30/06/2027",
    "latitude": -27.784206,
    "longitude": 153.003176
  },
  {
    "laboratory": "122",
    "APA Number": "42",
    "ACC": "397",
    "ACC Name": "QML PATHOLOGY 30",
    "Suburb / Town": "ST INNISFAIL QLD 4860",
    "From Date": "21/10/2002",
    "To Date": "30/06/2027",
    "latitude": -17.522503,
    "longitude": 146.028999
  },
  {
    "laboratory": "123",
    "APA Number": "42",
    "ACC": "400",
    "ACC Name": "QML PATHOLOGY PATH RM AYR MEDICAL CENTRE 2A-",
    "Suburb / Town": "AYR QLD 4807",
    "From Date": "09/12/2002",
    "To Date": "30/06/2027",
    "latitude": -34.908554,
    "longitude": 138.60304
  },
  {
    "laboratory": "124",
    "APA Number": "42",
    "ACC": "401",
    "ACC Name": "DOREVITCH PATHOLOGY PATH SE DIGESTIVE HLTH CTR 90",
    "Suburb / Town": "DANDENONG VIC 3175",
    "From Date": "16/12/2002",
    "To Date": "30/06/2027",
    "latitude": -37.993205,
    "longitude": 145.199734
  },
  {
    "laboratory": "125",
    "APA Number": "42",
    "ACC": "406",
    "ACC Name": "QML PATHOLOGY QML TENANCY SE 2 99",
    "Suburb / Town": "ST BALLINA NSW 2478",
    "From Date": "14/02/2003",
    "To Date": "30/06/2027",
    "latitude": -28.868446,
    "longitude": 153.558664
  },
  {
    "laboratory": "126",
    "APA Number": "42",
    "ACC": "408",
    "ACC Name": "LAVERTY PATHOLOGY PATH SE 2 COOTAMUNDRA PHC 118-COOTAMUNDRA NSW 2590",
    "Suburb / Town": "",
    "From Date": "01/07/2008",
    "To Date": "30/06/2027",
    "latitude": -25.734968,
    "longitude": 134.489563
  },
  {
    "laboratory": "127",
    "APA Number": "42",
    "ACC": "410",
    "ACC Name": "QML PATHOLOGY PATH RM MIAMI FAMILY M/C 1922",
    "Suburb / Town": "MIAMI QLD 4220",
    "From Date": "31/03/2003",
    "To Date": "30/06/2027",
    "latitude": -34.908656,
    "longitude": 138.602857
  },
  {
    "laboratory": "128",
    "APA Number": "42",
    "ACC": "416",
    "ACC Name": "QML PATHOLOGY SHOP 4 1300",
    "Suburb / Town": "RD FERNY GROVE QLD 4055",
    "From Date": "04/08/2003",
    "To Date": "30/06/2027",
    "latitude": -27.403245,
    "longitude": 152.938494
  },
  {
    "laboratory": "129",
    "APA Number": "42",
    "ACC": "418",
    "ACC Name": "DOREVITCH PATHOLOGY BELEURA PRIV HOSPITAL SE 9",
    "Suburb / Town": "MORNINGTON VIC 3931",
    "From Date": "04/08/2003",
    "To Date": "30/06/2027",
    "latitude": -38.218559,
    "longitude": 145.037891
  },
  {
    "laboratory": "130",
    "APA Number": "42",
    "ACC": "420",
    "ACC Name": "LAVERTY PATHOLOGY PATH SE SURRY HILLS MED CTR 569-SURRY",
    "Suburb / Town": "HILLS NSW 2010",
    "From Date": "01/07/2008",
    "To Date": "30/06/2027",
    "latitude": -33.516882,
    "longitude": 151.315478
  },
  {
    "laboratory": "131",
    "APA Number": "42",
    "ACC": "422",
    "ACC Name": "LAVERTY PATHOLOGY 216",
    "Suburb / Town": "ST ARMIDALE NSW 2350",
    "From Date": "18/08/2003",
    "To Date": "30/06/2027",
    "latitude": -30.513248,
    "longitude": 151.660373
  },
  {
    "laboratory": "132",
    "APA Number": "42",
    "ACC": "424",
    "ACC Name": "LAVERTY PATHOLOGY SE 3 52",
    "Suburb / Town": "PDE BANKSTOWN NSW 2200",
    "From Date": "18/08/2003",
    "To Date": "30/06/2027",
    "latitude": -33.915067,
    "longitude": 151.032994
  },
  {
    "laboratory": "133",
    "APA Number": "42",
    "ACC": "425",
    "ACC Name": "LAVERTY PATHOLOGY ULLADULLA PLAZA SE B 22-24",
    "Suburb / Town": "BAY NSW 2536",
    "From Date": "18/08/2003",
    "To Date": "30/06/2027",
    "latitude": -33.516808,
    "longitude": 151.31497
  },
  {
    "laboratory": "134",
    "APA Number": "42",
    "ACC": "428",
    "ACC Name": "LAVERTY PATHOLOGY 500",
    "Suburb / Town": "HWY BELMONT NSW 2280",
    "From Date": "18/08/2003",
    "To Date": "30/06/2027",
    "latitude": -33.035659,
    "longitude": 151.660797
  },
  {
    "laboratory": "135",
    "APA Number": "42",
    "ACC": "434",
    "ACC Name": "QML PATHOLOGY MCCULLOUGH CENTRE SE 21 245",
    "Suburb / Town": "SUNNYBANK QLD 4109",
    "From Date": "01/07/2008",
    "To Date": "30/06/2027",
    "latitude": -34.908544,
    "longitude": 138.603057
  },
  {
    "laboratory": "136",
    "APA Number": "42",
    "ACC": "441",
    "ACC Name": "QML PATHOLOGY PATH RM CHILDERS DRS SURG 3",
    "Suburb / Town": "CHILDERS QLD 4660",
    "From Date": "01/07/2008",
    "To Date": "30/06/2027",
    "latitude": -25.252217,
    "longitude": 152.239678
  },
  {
    "laboratory": "137",
    "APA Number": "42",
    "ACC": "442",
    "ACC Name": "LAVERTY PATHOLOGY PATH LAB KAREENA PRIV HOSP L 3 &CARINGBAH NSW 2229",
    "Suburb / Town": "",
    "From Date": "18/08/2003",
    "To Date": "30/06/2027",
    "latitude": -25.734968,
    "longitude": 134.489563
  },
  {
    "laboratory": "138",
    "APA Number": "42",
    "ACC": "443",
    "ACC Name": "WESTERN DIAGNOSTIC PATH PATH RM CURRAMBINE F/P U 2 4",
    "Suburb / Town": "CURRAMBINE WA 6028",
    "From Date": "01/07/2008",
    "To Date": "30/06/2027",
    "latitude": -31.73511,
    "longitude": 115.74516
  },
  {
    "laboratory": "139",
    "APA Number": "42",
    "ACC": "445",
    "ACC Name": "LAVERTY",
    "Suburb / Town": "PATHOLOGY RM GROUND FLOOR U CHARLESTOWN NSW 2290",
    "From Date": "18/08/2003",
    "To Date": "30/06/2027",
    "latitude": -32.963425,
    "longitude": 151.69514
  },
  {
    "laboratory": "140",
    "APA Number": "42",
    "ACC": "447",
    "ACC Name": "LAVERTY PATHOLOGY PTH SE 1&2 ASTLEY MC SH 5-8 358-",
    "Suburb / Town": "MARYS NSW 2760",
    "From Date": "01/07/2008",
    "To Date": "30/06/2027",
    "latitude": -33.767608,
    "longitude": 150.781638
  },
  {
    "laboratory": "141",
    "APA Number": "42",
    "ACC": "450",
    "ACC Name": "LAVERTY PATHOLOGY PATHOLOGY ROOM SHOP 3 92",
    "Suburb / Town": "CONCORD NSW 2137",
    "From Date": "18/08/2003",
    "To Date": "30/06/2027",
    "latitude": -33.863638,
    "longitude": 151.093304
  },
  {
    "laboratory": "142",
    "APA Number": "42",
    "ACC": "456",
    "ACC Name": "LAVERTY PATHOLOGY PATH RM DAPTO MED/FAM",
    "Suburb / Town": "G DAPTO NSW 2530",
    "From Date": "18/08/2003",
    "To Date": "30/06/2027",
    "latitude": -34.50171,
    "longitude": 150.7894
  },
  {
    "laboratory": "143",
    "APA Number": "42",
    "ACC": "457",
    "ACC Name": "LAVERTY PATHOLOGY SE 1 29",
    "Suburb / Town": "ST MACKSVILLE NSW 2447",
    "From Date": "18/08/2003",
    "To Date": "30/06/2027",
    "latitude": -30.716789,
    "longitude": 152.91447
  },
  {
    "laboratory": "144",
    "APA Number": "42",
    "ACC": "459",
    "ACC Name": "LAVERTY PATHOLOGY SHOP 2 805-813",
    "Suburb / Town": "PDE MAROUBRA NSW 2035",
    "From Date": "18/08/2003",
    "To Date": "30/06/2027",
    "latitude": -33.938063,
    "longitude": 151.238272
  },
  {
    "laboratory": "145",
    "APA Number": "42",
    "ACC": "460",
    "ACC Name": "LAVERTY PATHOLOGY PATH ROOM 1 & 2 SHOP 1 332-334",
    "Suburb / Town": "MARRICKVILLE NSW 2204",
    "From Date": "18/08/2003",
    "To Date": "30/06/2027",
    "latitude": -33.908223,
    "longitude": 151.167644
  },
  {
    "laboratory": "146",
    "APA Number": "42",
    "ACC": "461",
    "ACC Name": "LAVERTY PATHOLOGY SE B 280",
    "Suburb / Town": "RD MAYFIELD NSW 2304",
    "From Date": "18/08/2003",
    "To Date": "30/06/2027",
    "latitude": -32.900523,
    "longitude": 151.740827
  },
  {
    "laboratory": "147",
    "APA Number": "42",
    "ACC": "462",
    "ACC Name": "LAVERTY PATHOLOGY PATH ROOM SE 3A 62-70",
    "Suburb / Town": "MENAI NSW 2234",
    "From Date": "18/08/2003",
    "To Date": "30/06/2027",
    "latitude": -34.019013,
    "longitude": 151.031505
  },
  {
    "laboratory": "148",
    "APA Number": "42",
    "ACC": "466",
    "ACC Name": "LAVERTY PATHOLOGY PATHOLOGY SUITE 1 64 BROOK ST MUSWELLBROOK NSW",
    "Suburb / Town": "",
    "From Date": "18/08/2003",
    "To Date": "30/06/2027",
    "latitude": -25.734968,
    "longitude": 134.489563
  },
  {
    "laboratory": "149",
    "APA Number": "42",
    "ACC": "468",
    "ACC Name": "LAVERTY PATHOLOGY PEACHTREE CENTRE U 6 & 7 1 KENT NAMBUCCA HEADS NSW",
    "Suburb / Town": "",
    "From Date": "18/08/2003",
    "To Date": "30/06/2027",
    "latitude": -25.734968,
    "longitude": 134.489563
  },
  {
    "laboratory": "150",
    "APA Number": "42",
    "ACC": "472",
    "ACC Name": "LAVERTY PATHOLOGY STANDISH MEDICAL CENTRE SE 4 33NOWRA NSW 2541",
    "Suburb / Town": "",
    "From Date": "18/08/2003",
    "To Date": "30/06/2027",
    "latitude": -25.734968,
    "longitude": 134.489563
  },
  {
    "laboratory": "151",
    "APA Number": "42",
    "ACC": "479",
    "ACC Name": "LAVERTY PATHOLOGY THE HERMITAGE MED CTR SE 9 72- PORT MACQUARIE NSW",
    "Suburb / Town": "",
    "From Date": "18/08/2003",
    "To Date": "30/06/2027",
    "latitude": -25.734968,
    "longitude": 134.489563
  },
  {
    "laboratory": "152",
    "APA Number": "42",
    "ACC": "481",
    "ACC Name": "LAVERTY PATHOLOGY 177",
    "Suburb / Town": "ST QUIRINDI NSW 2343",
    "From Date": "18/08/2003",
    "To Date": "30/06/2027",
    "latitude": -31.509034,
    "longitude": 150.679839
  },
  {
    "laboratory": "153",
    "APA Number": "42",
    "ACC": "482",
    "ACC Name": "LAVERTY PATHOLOGY RAMSGATE PLAZE SUITE 5 191-203 RAMSGATE BEACH NSW",
    "Suburb / Town": "",
    "From Date": "18/08/2003",
    "To Date": "30/06/2027",
    "latitude": -25.734968,
    "longitude": 134.489563
  },
  {
    "laboratory": "154",
    "APA Number": "42",
    "ACC": "485",
    "ACC Name": "LAVERTY PATHOLOGY ROOTY HILL MED&DEN CTR U 1 G 31",
    "Suburb / Town": "HILL NSW 2766",
    "From Date": "01/07/2008",
    "To Date": "30/06/2027",
    "latitude": -33.768803,
    "longitude": 150.84175
  },
  {
    "laboratory": "155",
    "APA Number": "42",
    "ACC": "487",
    "ACC Name": "LAVERTY PATHOLOGY 289",
    "Suburb / Town": "RD RIVERWOOD NSW 2210",
    "From Date": "01/07/2008",
    "To Date": "30/06/2027",
    "latitude": -33.940316,
    "longitude": 151.054423
  },
  {
    "laboratory": "156",
    "APA Number": "42",
    "ACC": "490",
    "ACC Name": "LAVERTY",
    "Suburb / Town": "PROVINCIAL MC ST CLAIR SC SHOP ST CLAIR NSW 2759",
    "From Date": "18/08/2003",
    "To Date": "30/06/2027",
    "latitude": -33.787881,
    "longitude": 150.781918
  },
  {
    "laboratory": "157",
    "APA Number": "42",
    "ACC": "497",
    "ACC Name": "LAVERTY PATHOLOGY PATH RM 1 SCHWARZ F/P 37",
    "Suburb / Town": "ELDERSLIE NSW 2570",
    "From Date": "18/08/2003",
    "To Date": "30/06/2027",
    "latitude": -34.054207,
    "longitude": 150.717254
  },
  {
    "laboratory": "158",
    "APA Number": "42",
    "ACC": "500",
    "ACC Name": "LAVERTY PATHOLOGY CAPE HAWK COMM HOSP SE 1 5A",
    "Suburb / Town": "FORSTER NSW 2428",
    "From Date": "18/08/2003",
    "To Date": "30/06/2027",
    "latitude": -32.191396,
    "longitude": 152.519575
  },
  {
    "laboratory": "159",
    "APA Number": "42",
    "ACC": "510",
    "ACC Name": "LAVERTY PATHOLOGY 3",
    "Suburb / Town": "ST JANNALI NSW 2226",
    "From Date": "18/08/2003",
    "To Date": "30/06/2027",
    "latitude": -34.01719,
    "longitude": 151.065882
  },
  {
    "laboratory": "160",
    "APA Number": "42",
    "ACC": "512",
    "ACC Name": "LAVERTY PATHOLOGY SHOP 1 60",
    "Suburb / Town": "ST PENSHURST NSW 2222",
    "From Date": "01/07/2008",
    "To Date": "30/06/2027",
    "latitude": -33.957915,
    "longitude": 151.081856
  },
  {
    "laboratory": "161",
    "APA Number": "42",
    "ACC": "515",
    "ACC Name": "LAVERTY PATHOLOGY KINCUMBER CENTRE SHOP 10 39",
    "Suburb / Town": "KINCUMBER NSW 2251",
    "From Date": "18/08/2003",
    "To Date": "30/06/2027",
    "latitude": -33.465954,
    "longitude": 151.382296
  },
  {
    "laboratory": "162",
    "APA Number": "42",
    "ACC": "518",
    "ACC Name": "LAVERTY PATHOLOGY SHOP 4 95 ANITA AVE LAKE MUNMORAH NSW",
    "Suburb / Town": "",
    "From Date": "18/08/2003",
    "To Date": "30/06/2027",
    "latitude": -25.734968,
    "longitude": 134.489563
  },
  {
    "laboratory": "163",
    "APA Number": "42",
    "ACC": "522",
    "ACC Name": "LAVERTY PATHOLOGY PATH RM BIGGE ST MED CTR SE 11",
    "Suburb / Town": "LIVERPOOL NSW 2170",
    "From Date": "18/08/2003",
    "To Date": "30/06/2027",
    "latitude": -33.93541,
    "longitude": 150.904681
  },
  {
    "laboratory": "164",
    "APA Number": "42",
    "ACC": "523",
    "ACC Name": "LAVERTY PATHOLOGY PATH RM 55A",
    "Suburb / Town": "ST STOCKTON NSW 2295",
    "From Date": "18/08/2003",
    "To Date": "30/06/2027",
    "latitude": -32.910155,
    "longitude": 151.786658
  },
  {
    "laboratory": "165",
    "APA Number": "42",
    "ACC": "524",
    "ACC Name": "LAVERTY PATHOLOGY PATHOLOGY ROOM SE 2 33-35",
    "Suburb / Town": "SUTHERLAND NSW 2232",
    "From Date": "18/08/2003",
    "To Date": "30/06/2027",
    "latitude": -34.033388,
    "longitude": 151.054901
  },
  {
    "laboratory": "166",
    "APA Number": "42",
    "ACC": "528",
    "ACC Name": "LAVERTY PATHOLOGY 128",
    "Suburb / Town": "ST TAMWORTH NSW 2340",
    "From Date": "18/08/2003",
    "To Date": "30/06/2027",
    "latitude": -31.086478,
    "longitude": 150.929055
  },
  {
    "laboratory": "167",
    "APA Number": "42",
    "ACC": "529",
    "ACC Name": "LAVERTY",
    "Suburb / Town": "TAMWELL MEDICAL CENTRE SE O TAMWORTH NSW 2340",
    "From Date": "18/08/2003",
    "To Date": "30/06/2027",
    "latitude": -28.80629,
    "longitude": 153.263693
  },
  {
    "laboratory": "168",
    "APA Number": "42",
    "ACC": "530",
    "ACC Name": "LAVERTY PATHOLOGY 67",
    "Suburb / Town": "ST TAREE NSW 2430",
    "From Date": "18/08/2003",
    "To Date": "30/06/2027",
    "latitude": -31.910381,
    "longitude": 152.457543
  },
  {
    "laboratory": "169",
    "APA Number": "42",
    "ACC": "542",
    "ACC Name": "DOREVITCH",
    "Suburb / Town": "PATH RMS WYNDHAM HLTH CARE U WERRIBEE VIC 3030",
    "From Date": "01/07/2008",
    "To Date": "30/06/2027",
    "latitude": -37.90519,
    "longitude": 144.656111
  },
  {
    "laboratory": "170",
    "APA Number": "42",
    "ACC": "543",
    "ACC Name": "DOREVITCH PATHOLOGY PATH RM BEAUMARIS M/C 31A",
    "Suburb / Town": "BEAUMARIS VIC 3193",
    "From Date": "01/07/2008",
    "To Date": "30/06/2027",
    "latitude": -37.982191,
    "longitude": 145.038594
  },
  {
    "laboratory": "171",
    "APA Number": "42",
    "ACC": "545",
    "ACC Name": "LAVERTY PATHOLOGY PATH RM GOOD LIFE PHARMACY 491SOUTH WINDSOR NSW",
    "Suburb / Town": "",
    "From Date": "18/08/2003",
    "To Date": "30/06/2027",
    "latitude": -25.734968,
    "longitude": 134.489563
  },
  {
    "laboratory": "172",
    "APA Number": "42",
    "ACC": "546",
    "ACC Name": "LAVERTY PATHOLOGY SHOP 3 20",
    "Suburb / Town": "ST WINGHAM NSW 2429",
    "From Date": "18/08/2003",
    "To Date": "30/06/2027",
    "latitude": -31.868968,
    "longitude": 152.374181
  },
  {
    "laboratory": "173",
    "APA Number": "42",
    "ACC": "547",
    "ACC Name": "LAVERTY PATHOLOGY PATH RM CORINA CHAMBERS U 13",
    "Suburb / Town": "PHILLIP ACT 2606",
    "From Date": "18/08/2003",
    "To Date": "30/06/2027",
    "latitude": -25.485678,
    "longitude": 152.710813
  },
  {
    "laboratory": "174",
    "APA Number": "42",
    "ACC": "551",
    "ACC Name": "LAVERTY PATHOLOGY PATH SE ATHERFIELD MED CTR 65",
    "Suburb / Town": "YASS NSW 2582",
    "From Date": "18/08/2003",
    "To Date": "30/06/2027",
    "latitude": -34.842148,
    "longitude": 148.91124
  },
  {
    "laboratory": "175",
    "APA Number": "42",
    "ACC": "553",
    "ACC Name": "LAVERTY PATHOLOGY ROOMS 1&2 BUILDING A&B G 60",
    "Suburb / Town": "RYDE NSW 2113",
    "From Date": "18/08/2003",
    "To Date": "30/06/2027",
    "latitude": -33.79834,
    "longitude": 151.12648
  },
  {
    "laboratory": "176",
    "APA Number": "42",
    "ACC": "555",
    "ACC Name": "LAVERTY PATHOLOGY OTP HOUSE SE 1 G 10",
    "Suburb / Town": "CLKOTARA NSW 2289",
    "From Date": "18/08/2003",
    "To Date": "30/06/2027",
    "latitude": -33.919277,
    "longitude": 151.195354
  },
  {
    "laboratory": "177",
    "APA Number": "42",
    "ACC": "556",
    "ACC Name": "LAVERTY PATHOLOGY PTH RM 5 HOLY FAM MC SH 2 529",
    "Suburb / Town": "HILL NSW 2203",
    "From Date": "20/08/2003",
    "To Date": "30/06/2027",
    "latitude": -33.902512,
    "longitude": 151.141166
  },
  {
    "laboratory": "178",
    "APA Number": "42",
    "ACC": "560",
    "ACC Name": "QML",
    "Suburb / Town": "KINGSCLIFF SHOPPING VILLAGE KINGSCLIFF NSW 2487",
    "From Date": "01/09/2003",
    "To Date": "30/06/2027",
    "latitude": -28.24614,
    "longitude": 153.568284
  },
  {
    "laboratory": "179",
    "APA Number": "42",
    "ACC": "562",
    "ACC Name": "DOREVITCH PATHOLOGY PATH RM HILLCREST HLTH CARE 50-",
    "Suburb / Town": "JACANA VIC 3047",
    "From Date": "01/07/2008",
    "To Date": "30/06/2027",
    "latitude": -37.688522,
    "longitude": 144.923515
  },
  {
    "laboratory": "180",
    "APA Number": "42",
    "ACC": "570",
    "ACC Name": "LAVERTY",
    "Suburb / Town": "MONGOMERY DIAGNOSTIC CTR G SEKOGARAH NSW 2217",
    "From Date": "06/10/2003",
    "To Date": "30/06/2027",
    "latitude": -33.889561,
    "longitude": 151.175299
  },
  {
    "laboratory": "181",
    "APA Number": "42",
    "ACC": "571",
    "ACC Name": "QML PATHOLOGY PATHOLOGY ROOM SHOP 1 43",
    "Suburb / Town": "NANANGO QLD 4615",
    "From Date": "13/10/2003",
    "To Date": "30/06/2027",
    "latitude": -34.908551,
    "longitude": 138.603044
  },
  {
    "laboratory": "182",
    "APA Number": "42",
    "ACC": "572",
    "ACC Name": "DOREVITCH PATHOLOGY PATH RM ELTHAM CENTRAL M/C 9",
    "Suburb / Town": "ELTHAM VIC 3095",
    "From Date": "03/11/2003",
    "To Date": "30/06/2027",
    "latitude": -37.713612,
    "longitude": 145.148526
  },
  {
    "laboratory": "183",
    "APA Number": "42",
    "ACC": "587",
    "ACC Name": "QML",
    "Suburb / Town": "ASPLEY FOUNTAIN SHOP CTR SHOP ASPLEY QLD 4034",
    "From Date": "01/07/2008",
    "To Date": "30/06/2027",
    "latitude": -27.369665,
    "longitude": 153.007292
  },
  {
    "laboratory": "184",
    "APA Number": "42",
    "ACC": "603",
    "ACC Name": "WESTERN DIAGNOSTIC PATH PATHOLOGY ROOM SHOP 5 5",
    "Suburb / Town": "FORREST WA 6071",
    "From Date": "01/07/2008",
    "To Date": "30/06/2027",
    "latitude": -31.918036,
    "longitude": 116.101056
  },
  {
    "laboratory": "185",
    "APA Number": "42",
    "ACC": "606",
    "ACC Name": "QUEENSLAND MEDICAL LAB SHOP 2 184",
    "Suburb / Town": "RD BURPENGARY QLD 4505",
    "From Date": "19/04/2004",
    "To Date": "30/06/2027",
    "latitude": -27.155063,
    "longitude": 152.966062
  },
  {
    "laboratory": "186",
    "APA Number": "42",
    "ACC": "608",
    "ACC Name": "QML PATHOLOGY SHOP 37 ARUNDEL PLAZA S/C 230-",
    "Suburb / Town": "ARUNDEL QLD 4214",
    "From Date": "19/04/2004",
    "To Date": "30/06/2027",
    "latitude": -27.936569,
    "longitude": 153.358917
  },
  {
    "laboratory": "187",
    "APA Number": "42",
    "ACC": "613",
    "ACC Name": "LAVERTY PATHOLOGY 214",
    "Suburb / Town": "ST PANANIA NSW 2213",
    "From Date": "27/04/2004",
    "To Date": "30/06/2027",
    "latitude": -33.954226,
    "longitude": 151.007682
  },
  {
    "laboratory": "188",
    "APA Number": "42",
    "ACC": "621",
    "ACC Name": "QML PATHOLOGY THE GAS WORKS SHOP 11A 137",
    "Suburb / Town": "MACKAY QLD 4740",
    "From Date": "01/07/2008",
    "To Date": "30/06/2027",
    "latitude": -34.908659,
    "longitude": 138.602851
  },
  {
    "laboratory": "189",
    "APA Number": "42",
    "ACC": "622",
    "ACC Name": "QUEENSLAND MEDICAL LAB PATH CLN WARNER VILLAGE S/C",
    "Suburb / Town": "WARNER QLD 4500",
    "From Date": "21/06/2004",
    "To Date": "30/06/2027",
    "latitude": -27.322961,
    "longitude": 152.953463
  },
  {
    "laboratory": "190",
    "APA Number": "42",
    "ACC": "623",
    "ACC Name": "QUEENSLAND MEDICAL LAB LEASE 4A GREENFIELD CC 4 MOUNT PLEASANT QLD",
    "Suburb / Town": "",
    "From Date": "07/06/2004",
    "To Date": "30/06/2027",
    "latitude": -25.734968,
    "longitude": 134.489563
  },
  {
    "laboratory": "191",
    "APA Number": "42",
    "ACC": "624",
    "ACC Name": "QUEENSLAND MEDICAL LAB P/RM PARKINSON PLAZA M/C G SHP-",
    "Suburb / Town": "PARKINSON QLD 4115",
    "From Date": "21/06/2004",
    "To Date": "30/06/2027",
    "latitude": -34.908544,
    "longitude": 138.603057
  },
  {
    "laboratory": "192",
    "APA Number": "42",
    "ACC": "626",
    "ACC Name": "LAVERTY PATHOLOGY PATH RM WESTMEAD SPEC M/C 151-",
    "Suburb / Town": "WESTMEAD NSW 2145",
    "From Date": "09/07/2004",
    "To Date": "30/06/2027",
    "latitude": -33.808395,
    "longitude": 150.9879
  },
  {
    "laboratory": "193",
    "APA Number": "42",
    "ACC": "630",
    "ACC Name": "DOREVITCH PATHOLOGY PATH RM ASPENDALE GARDEN MC 8ASPENDALE GARDEN VIC",
    "Suburb / Town": "",
    "From Date": "16/08/2004",
    "To Date": "30/06/2027",
    "latitude": -25.734968,
    "longitude": 134.489563
  },
  {
    "laboratory": "194",
    "APA Number": "42",
    "ACC": "632",
    "ACC Name": "QUEENSLAND MED LAB QML PATH TNCY T12 ORIEL PL 531",
    "Suburb / Town": "CLAYFIELD QLD 4011",
    "From Date": "30/08/2004",
    "To Date": "30/06/2027",
    "latitude": -34.908543,
    "longitude": 138.603059
  },
  {
    "laboratory": "195",
    "APA Number": "42",
    "ACC": "634",
    "ACC Name": "QUEENSLAND MEDICAL LAB PATH POINT VERNON MED PRECINCT 32",
    "Suburb / Town": "VERNON QLD 4655",
    "From Date": "13/09/2004",
    "To Date": "30/06/2027",
    "latitude": -34.908552,
    "longitude": 138.603043
  },
  {
    "laboratory": "196",
    "APA Number": "42",
    "ACC": "639",
    "ACC Name": "LAVERTY",
    "Suburb / Town": "THE GOOD SHEPHERD CLINIC SHOP MOUNT ANNAN NSW 2567",
    "From Date": "01/07/2008",
    "To Date": "30/06/2027",
    "latitude": -34.062042,
    "longitude": 150.76751
  },
  {
    "laboratory": "197",
    "APA Number": "42",
    "ACC": "641",
    "ACC Name": "LAVERTY PATHOLOGY PATH SUITE SCONE MED CENTRE 5",
    "Suburb / Town": "SCONE NSW 2337",
    "From Date": "20/09/2004",
    "To Date": "30/06/2027",
    "latitude": -32.050694,
    "longitude": 150.86748
  },
  {
    "laboratory": "198",
    "APA Number": "42",
    "ACC": "643",
    "ACC Name": "LAVERTY PATHOLOGY SHOP 1 27-29",
    "Suburb / Town": "ST ROCKDALE NSW 2216",
    "From Date": "27/09/2004",
    "To Date": "30/06/2027",
    "latitude": -33.953164,
    "longitude": 151.140323
  },
  {
    "laboratory": "199",
    "APA Number": "42",
    "ACC": "644",
    "ACC Name": "QML PATHOLOGY LAKELANDS MEDICAL T9 1",
    "Suburb / Town": "NORTH LAKES QLD 4509",
    "From Date": "01/07/2008",
    "To Date": "30/06/2027",
    "latitude": -27.239984,
    "longitude": 153.016175
  },
  {
    "laboratory": "200",
    "APA Number": "42",
    "ACC": "655",
    "ACC Name": "QUEENSLAND MEDICAL LAB SHOP 16 TWEED HUB 112-140 TWEED HEADS SOUT NSW",
    "Suburb / Town": "",
    "From Date": "31/01/2005",
    "To Date": "30/06/2027",
    "latitude": -25.734968,
    "longitude": 134.489563
  },
  {
    "laboratory": "201",
    "APA Number": "42",
    "ACC": "657",
    "ACC Name": "DOREVITCH PATHOLOGY PATH RM 1 GLEN UNION M/C 224",
    "Suburb / Town": "WAVERLEY VIC 3150",
    "From Date": "07/02/2005",
    "To Date": "30/06/2027",
    "latitude": -37.884852,
    "longitude": 145.189612
  },
  {
    "laboratory": "202",
    "APA Number": "42",
    "ACC": "658",
    "ACC Name": "QUEENSLAND MEDICAL LAB WESTFIELD NTH LAKES SH 1014 1",
    "Suburb / Town": "LAKES QLD 4509",
    "From Date": "07/02/2005",
    "To Date": "30/06/2027",
    "latitude": -27.239984,
    "longitude": 153.016175
  },
  {
    "laboratory": "203",
    "APA Number": "42",
    "ACC": "663",
    "ACC Name": "QUEENSLAND MEDICAL LAB SHOP 1A 5",
    "Suburb / Town": "OBI RD MAPLETON QLD 4560",
    "From Date": "14/02/2005",
    "To Date": "30/06/2027",
    "latitude": -26.630828,
    "longitude": 152.858385
  },
  {
    "laboratory": "204",
    "APA Number": "42",
    "ACC": "665",
    "ACC Name": "QUEENSLAND MEDICAL LAB PATHOLOGY ROOM SHOP 3 28",
    "Suburb / Town": "KIRWAN QLD 4817",
    "From Date": "21/02/2005",
    "To Date": "30/06/2027",
    "latitude": -34.908554,
    "longitude": 138.603039
  },
  {
    "laboratory": "205",
    "APA Number": "42",
    "ACC": "666",
    "ACC Name": "LAVERTY PATHOLOGY SE 2 135-137",
    "Suburb / Town": "ST WAGGA WAGGA NSW 2650",
    "From Date": "21/02/2005",
    "To Date": "30/06/2027",
    "latitude": -35.114195,
    "longitude": 147.368136
  },
  {
    "laboratory": "206",
    "APA Number": "42",
    "ACC": "667",
    "ACC Name": "QML PATHOLOGY SUITE 7 G 1220",
    "Suburb / Town": "RD NUNDAH QLD 4012",
    "From Date": "07/03/2005",
    "To Date": "30/06/2027",
    "latitude": -27.389065,
    "longitude": 153.059323
  },
  {
    "laboratory": "207",
    "APA Number": "42",
    "ACC": "670",
    "ACC Name": "QUEENSLAND MEDICAL LAB SHOP 6 4",
    "Suburb / Town": "RD ARANA HILLS QLD 4054",
    "From Date": "21/03/2005",
    "To Date": "30/06/2027",
    "latitude": -27.39425,
    "longitude": 152.95505
  },
  {
    "laboratory": "208",
    "APA Number": "42",
    "ACC": "672",
    "ACC Name": "DOREVITCH PATHOLOGY 203",
    "Suburb / Town": "RD MOOROOLBARK VIC 3138",
    "From Date": "04/04/2005",
    "To Date": "30/06/2027",
    "latitude": -37.782746,
    "longitude": 145.323877
  },
  {
    "laboratory": "209",
    "APA Number": "42",
    "ACC": "677",
    "ACC Name": "QML PATHOLOGY SHOP T02B COCO'S S/C 1",
    "Suburb / Town": "CARRARA QLD 4211",
    "From Date": "01/07/2008",
    "To Date": "30/06/2027",
    "latitude": -28.01686,
    "longitude": 153.385407
  },
  {
    "laboratory": "210",
    "APA Number": "42",
    "ACC": "679",
    "ACC Name": "LAVERTY",
    "Suburb / Town": "PATH RM OLD BAR MEDICAL CTR SE OLD BAR NSW 2430",
    "From Date": "23/05/2005",
    "To Date": "30/06/2027",
    "latitude": -31.969649,
    "longitude": 152.589401
  },
  {
    "laboratory": "211",
    "APA Number": "42",
    "ACC": "686",
    "ACC Name": "QML PATHOLOGY SHOP 4133 LEVEL 4 19 ROBINA ROBINA TOWN CENT QLD",
    "Suburb / Town": "",
    "From Date": "30/05/2005",
    "To Date": "30/06/2027",
    "latitude": -25.734968,
    "longitude": 134.489563
  },
  {
    "laboratory": "212",
    "APA Number": "42",
    "ACC": "688",
    "ACC Name": "DOREVITCH PATHOLOGY PTH RM DEER PARK CENTRAL MC 26DEER",
    "Suburb / Town": "PARK VIC 3023",
    "From Date": "01/07/2008",
    "To Date": "30/06/2027",
    "latitude": -38.125362,
    "longitude": 145.840418
  },
  {
    "laboratory": "213",
    "APA Number": "42",
    "ACC": "691",
    "ACC Name": "LAVERTY PATHOLOGY SHOP 3 5 & 7 128 WYONG RD KILLARNEY VALE NSW",
    "Suburb / Town": "",
    "From Date": "20/06/2005",
    "To Date": "30/06/2027",
    "latitude": -25.734968,
    "longitude": 134.489563
  },
  {
    "laboratory": "214",
    "APA Number": "42",
    "ACC": "693",
    "ACC Name": "LAVERTY PATHOLOGY U 3 53-55",
    "Suburb / Town": "RD WAGGA WAGGA NSW 2650",
    "From Date": "17/06/2005",
    "To Date": "30/06/2027",
    "latitude": -35.13061,
    "longitude": 147.341839
  },
  {
    "laboratory": "215",
    "APA Number": "42",
    "ACC": "697",
    "ACC Name": "LAVERTY PATHOLOGY SHOP 102 35",
    "Suburb / Town": "ST KEMPSEY NSW 2440",
    "From Date": "11/07/2005",
    "To Date": "30/06/2027",
    "latitude": -31.079909,
    "longitude": 152.8364
  },
  {
    "laboratory": "216",
    "APA Number": "42",
    "ACC": "699",
    "ACC Name": "LAVERTY PATHOLOGY SE 10 & 12 CHA BUILDING 9-25 BARRACK HEIGHTS NSW",
    "Suburb / Town": "",
    "From Date": "15/07/2005",
    "To Date": "30/06/2027",
    "latitude": -25.734968,
    "longitude": 134.489563
  },
  {
    "laboratory": "217",
    "APA Number": "42",
    "ACC": "700",
    "ACC Name": "LAVERTY PATHOLOGY PATH RM THE BOATHOUSE SHOP 3",
    "Suburb / Town": "LAURIETON NSW 2443",
    "From Date": "18/07/2005",
    "To Date": "30/06/2027",
    "latitude": -31.650215,
    "longitude": 152.79672
  },
  {
    "laboratory": "218",
    "APA Number": "42",
    "ACC": "701",
    "ACC Name": "DOREVITCH PATHOLOGY PATH SE TUNSTALL SQUARE M/C 2",
    "Suburb / Town": "DONVALE VIC 3111",
    "From Date": "01/08/2005",
    "To Date": "30/06/2027",
    "latitude": -37.789486,
    "longitude": 145.190788
  },
  {
    "laboratory": "219",
    "APA Number": "42",
    "ACC": "705",
    "ACC Name": "LAVERTY PATHOLOGY PATH SE 1 GLENROCK CP 8 TANDA GLENFIELD PARK NSW",
    "Suburb / Town": "",
    "From Date": "25/08/2005",
    "To Date": "30/06/2027",
    "latitude": -25.734968,
    "longitude": 134.489563
  },
  {
    "laboratory": "220",
    "APA Number": "42",
    "ACC": "708",
    "ACC Name": "DOREVITCH PATHOLOGY MT MARTHA VILLAGE CLNC SE 2 2",
    "Suburb / Town": "MARTHA VIC 3934",
    "From Date": "10/10/2005",
    "To Date": "30/06/2027",
    "latitude": -38.302818,
    "longitude": 144.995232
  },
  {
    "laboratory": "221",
    "APA Number": "42",
    "ACC": "710",
    "ACC Name": "LAVERTY PATHOLOGY PATH RM COBAR PHCC 26",
    "Suburb / Town": "COBAR NSW 2835",
    "From Date": "19/10/2005",
    "To Date": "30/06/2027",
    "latitude": -31.529569,
    "longitude": 145.856823
  },
  {
    "laboratory": "222",
    "APA Number": "42",
    "ACC": "711",
    "ACC Name": "DOREVITCH",
    "Suburb / Town": "MARYBOROUGH DIST HEALTH SVC MARYBOROUGH VIC 3465",
    "From Date": "24/10/2005",
    "To Date": "30/06/2027",
    "latitude": -22.853007,
    "longitude": 149.796156
  },
  {
    "laboratory": "223",
    "APA Number": "42",
    "ACC": "720",
    "ACC Name": "QUEENSLAND MEDICAL LAB QML TNCY MAJELLAN M/C U 1 107",
    "Suburb / Town": "SCARBOROUGH QLD 4020",
    "From Date": "19/12/2005",
    "To Date": "30/06/2027",
    "latitude": -27.20993,
    "longitude": 153.108988
  },
  {
    "laboratory": "224",
    "APA Number": "42",
    "ACC": "721",
    "ACC Name": "QUEENSLAND MEDICAL LAB HOLLAND PARK PROF SUITES SE 1",
    "Suburb / Town": "PARK QLD 4121",
    "From Date": "03/01/2006",
    "To Date": "30/06/2027",
    "latitude": -27.517998,
    "longitude": 153.068058
  },
  {
    "laboratory": "225",
    "APA Number": "42",
    "ACC": "722",
    "ACC Name": "QUEENSLAND MEDICAL LAB PATH RM ASHMORE PLAZA S/C",
    "Suburb / Town": "ASHMORE QLD 4214",
    "From Date": "03/01/2006",
    "To Date": "30/06/2027",
    "latitude": -27.976582,
    "longitude": 153.36048
  },
  {
    "laboratory": "226",
    "APA Number": "42",
    "ACC": "732",
    "ACC Name": "DOREVITCH PATHOLOGY PTH RM 1",
    "Suburb / Town": "HEALTHCARE FAWKNER VIC 3060",
    "From Date": "01/07/2008",
    "To Date": "30/06/2027",
    "latitude": -37.701687,
    "longitude": 144.96564
  },
  {
    "laboratory": "227",
    "APA Number": "42",
    "ACC": "737",
    "ACC Name": "LAVERTY PATHOLOGY PATHOLOGY ROOM 3",
    "Suburb / Town": "AVE GRIFFITH NSW 2680",
    "From Date": "10/01/2006",
    "To Date": "30/06/2027",
    "latitude": -34.280932,
    "longitude": 146.04238
  },
  {
    "laboratory": "228",
    "APA Number": "42",
    "ACC": "745",
    "ACC Name": "LAVERTY PATHOLOGY 84",
    "Suburb / Town": "ST TAREE NSW 2430",
    "From Date": "10/01/2006",
    "To Date": "30/06/2027",
    "latitude": -31.91146,
    "longitude": 152.459985
  },
  {
    "laboratory": "229",
    "APA Number": "42",
    "ACC": "746",
    "ACC Name": "LAVERTY PATHOLOGY PATH ROOM TAREE MEDICAL CTR 68TAREE NSW 2430",
    "Suburb / Town": "",
    "From Date": "10/01/2006",
    "To Date": "30/06/2027",
    "latitude": -25.734968,
    "longitude": 134.489563
  },
  {
    "laboratory": "230",
    "APA Number": "42",
    "ACC": "747",
    "ACC Name": "LAVERTY PATHOLOGY COLLECTION ROOMS U 1 19",
    "Suburb / Town": "TUNCURRY NSW 2428",
    "From Date": "10/01/2006",
    "To Date": "30/06/2027",
    "latitude": -32.171639,
    "longitude": 152.495855
  },
  {
    "laboratory": "231",
    "APA Number": "42",
    "ACC": "748",
    "ACC Name": "LAVERTY PATHOLOGY SE 1 63",
    "Suburb / Town": "ST WAUCHOPE NSW 2446",
    "From Date": "10/01/2006",
    "To Date": "30/06/2027",
    "latitude": -31.463701,
    "longitude": 152.722545
  },
  {
    "laboratory": "232",
    "APA Number": "42",
    "ACC": "756",
    "ACC Name": "QUEENSLAND MEDICAL LAB REDLAND BAY VILL SC BLDG 7 -",
    "Suburb / Town": "REDLAND BAY QLD 4165",
    "From Date": "23/01/2006",
    "To Date": "30/06/2027",
    "latitude": -27.612482,
    "longitude": 153.30307
  },
  {
    "laboratory": "233",
    "APA Number": "42",
    "ACC": "758",
    "ACC Name": "LAVERTY PATHOLOGY PATH RM WESTFIELD SHOP 104 G 20BELCONNEN ACT 2617",
    "Suburb / Town": "",
    "From Date": "08/02/2006",
    "To Date": "30/06/2027",
    "latitude": -25.734968,
    "longitude": 134.489563
  },
  {
    "laboratory": "234",
    "APA Number": "42",
    "ACC": "765",
    "ACC Name": "QML PATHOLOGY TENANCY 21B RAINTREES SC -",
    "Suburb / Town": "MANUNDA QLD 4870",
    "From Date": "20/03/2006",
    "To Date": "30/06/2027",
    "latitude": -34.90866,
    "longitude": 138.602849
  },
  {
    "laboratory": "235",
    "APA Number": "42",
    "ACC": "768",
    "ACC Name": "DOREVITCH PATHOLOGY PATH RMS GEELONG CITY M/C 255",
    "Suburb / Town": "GEELONG VIC 3220",
    "From Date": "10/04/2006",
    "To Date": "30/06/2027",
    "latitude": -38.149362,
    "longitude": 144.359787
  },
  {
    "laboratory": "236",
    "APA Number": "42",
    "ACC": "769",
    "ACC Name": "QML PATHOLOGY SHOP 4 163-171",
    "Suburb / Town": "RD HAWTHORNE QLD 4171",
    "From Date": "01/07/2008",
    "To Date": "30/06/2027",
    "latitude": -27.460929,
    "longitude": 153.063286
  },
  {
    "laboratory": "237",
    "APA Number": "42",
    "ACC": "771",
    "ACC Name": "LAVERTY PATHOLOGY PATH RM 1 KAREELA FAM PRAC 12",
    "Suburb / Town": "KAREELA NSW 2232",
    "From Date": "13/04/2006",
    "To Date": "30/06/2027",
    "latitude": -34.016174,
    "longitude": 151.08199
  },
  {
    "laboratory": "238",
    "APA Number": "42",
    "ACC": "772",
    "ACC Name": "LAVERTY PATHOLOGY PATH SE 1 MYHEALTH M/C",
    "Suburb / Town": "MERRYLANDS NSW 2160",
    "From Date": "01/07/2008",
    "To Date": "30/06/2027",
    "latitude": -33.837164,
    "longitude": 150.997546
  },
  {
    "laboratory": "239",
    "APA Number": "42",
    "ACC": "773",
    "ACC Name": "QML PATHOLOGY PATH RM SHOPS 4 & 6 86",
    "Suburb / Town": "ST WYNNUM QLD 4178",
    "From Date": "02/05/2006",
    "To Date": "30/06/2027",
    "latitude": -27.444547,
    "longitude": 153.174023
  },
  {
    "laboratory": "240",
    "APA Number": "42",
    "ACC": "777",
    "ACC Name": "DOREVITCH PATHOLOGY DOREVITCH PATHOLOGY G 122",
    "Suburb / Town": "BAIRNSDALE VIC 3875",
    "From Date": "21/05/2006",
    "To Date": "30/06/2027",
    "latitude": -37.82435,
    "longitude": 147.61006
  },
  {
    "laboratory": "241",
    "APA Number": "42",
    "ACC": "780",
    "ACC Name": "DOREVITCH PATHOLOGY PATH RM SILVERTON MED CTR 135 NOBLE PARK NORTH VIC",
    "Suburb / Town": "",
    "From Date": "01/07/2008",
    "To Date": "30/06/2027",
    "latitude": -25.734968,
    "longitude": 134.489563
  },
  {
    "laboratory": "242",
    "APA Number": "42",
    "ACC": "782",
    "ACC Name": "LAVERTY PATHOLOGY TENANCY 3 103",
    "Suburb / Town": "ST TAMWORTH NSW 2340",
    "From Date": "01/07/2008",
    "To Date": "30/06/2027",
    "latitude": -31.084842,
    "longitude": 150.924451
  },
  {
    "laboratory": "243",
    "APA Number": "42",
    "ACC": "785",
    "ACC Name": "DOREVITCH PATHOLOGY PTH RM HEYFIELD BUSH N/HOSP 14-",
    "Suburb / Town": "HEYFIELD VIC 3858",
    "From Date": "21/05/2006",
    "To Date": "30/06/2027",
    "latitude": -37.980403,
    "longitude": 146.785484
  },
  {
    "laboratory": "244",
    "APA Number": "42",
    "ACC": "788",
    "ACC Name": "QML PATHOLOGY P/RM CASTLE HILL M/C SHOP 5 272 MURRUMBA DOWNS QLD",
    "Suburb / Town": "",
    "From Date": "01/07/2008",
    "To Date": "30/06/2027",
    "latitude": -25.734968,
    "longitude": 134.489563
  },
  {
    "laboratory": "245",
    "APA Number": "42",
    "ACC": "796",
    "ACC Name": "LAVERTY",
    "Suburb / Town": "PATH RM LAKE CATHIE MED CTR LAKE CATHIE NSW 2445",
    "From Date": "01/07/2008",
    "To Date": "30/06/2027",
    "latitude": -31.55251,
    "longitude": 152.85504
  },
  {
    "laboratory": "246",
    "APA Number": "42",
    "ACC": "799",
    "ACC Name": "DOREVITCH PATHOLOGY RM 129 CHELSEA HOUSE FL 1 47-59 NORTH MELBOURNE VIC",
    "Suburb / Town": "",
    "From Date": "21/05/2006",
    "To Date": "30/06/2027",
    "latitude": -25.734968,
    "longitude": 134.489563
  },
  {
    "laboratory": "247",
    "APA Number": "42",
    "ACC": "800",
    "ACC Name": "DOREVITCH PATHOLOGY PATH RM ORBOST & DIST HOSP 104",
    "Suburb / Town": "ORBOST VIC 3888",
    "From Date": "21/05/2006",
    "To Date": "30/06/2027",
    "latitude": -37.705546,
    "longitude": 148.455299
  },
  {
    "laboratory": "248",
    "APA Number": "42",
    "ACC": "803",
    "ACC Name": "DOREVITCH PATHOLOGY PATH LAB CENTRAL GIPPSLAND 155",
    "Suburb / Town": "SALE VIC 3850",
    "From Date": "21/05/2006",
    "To Date": "30/06/2027",
    "latitude": -38.092645,
    "longitude": 147.067716
  },
  {
    "laboratory": "249",
    "APA Number": "42",
    "ACC": "804",
    "ACC Name": "DOREVITCH PATHOLOGY PATH SE CLOCKTOWER M/C 278-286",
    "Suburb / Town": "SALE VIC 3850",
    "From Date": "21/05/2006",
    "To Date": "30/06/2027",
    "latitude": -38.092645,
    "longitude": 147.067716
  },
  {
    "laboratory": "250",
    "APA Number": "42",
    "ACC": "806",
    "ACC Name": "LAVERTY PATHOLOGY PATH SE KRUGER MED CENTRE 10",
    "Suburb / Town": "HARDEN NSW 2587",
    "From Date": "01/07/2008",
    "To Date": "30/06/2027",
    "latitude": -34.55504,
    "longitude": 148.36963
  },
  {
    "laboratory": "251",
    "APA Number": "42",
    "ACC": "808",
    "ACC Name": "DOREVITCH PATHOLOGY PATHOLOGY ROOM 6",
    "Suburb / Town": "ST TRARALGON VIC 3844",
    "From Date": "21/05/2006",
    "To Date": "30/06/2027",
    "latitude": -38.194761,
    "longitude": 146.522
  },
  {
    "laboratory": "252",
    "APA Number": "42",
    "ACC": "816",
    "ACC Name": "QUEENSLAND MEDICAL LAB QML PROCEDURE ROOM 11",
    "Suburb / Town": "MURARRIE QLD 4172",
    "From Date": "29/05/2006",
    "To Date": "30/06/2027",
    "latitude": -27.464336,
    "longitude": 153.10785
  },
  {
    "laboratory": "253",
    "APA Number": "42",
    "ACC": "817",
    "ACC Name": "QUEENSLAND MEDICAL LAB ROOM 3 AND 4 1",
    "Suburb / Town": "ST ALSTONVILLE NSW 2477",
    "From Date": "29/05/2006",
    "To Date": "30/06/2027",
    "latitude": -28.839913,
    "longitude": 153.440804
  },
  {
    "laboratory": "254",
    "APA Number": "42",
    "ACC": "821",
    "ACC Name": "QML PATHOLOGY SHOP 2 62",
    "Suburb / Town": "ST BOONAH QLD 4310",
    "From Date": "19/06/2006",
    "To Date": "30/06/2027",
    "latitude": -27.997057,
    "longitude": 152.682271
  },
  {
    "laboratory": "255",
    "APA Number": "42",
    "ACC": "826",
    "ACC Name": "QML PATHOLOGY STOCKLAND S/C SHOP RS1D G 120-",
    "Suburb / Town": "AVENUE QLD 4701",
    "From Date": "01/07/2008",
    "To Date": "30/06/2027",
    "latitude": -34.908552,
    "longitude": 138.603042
  },
  {
    "laboratory": "256",
    "APA Number": "42",
    "ACC": "829",
    "ACC Name": "DOREVITCH PATHOLOGY PRAHRAN MARKET CLINIC M 325",
    "Suburb / Town": "PRAHRAN VIC 3181",
    "From Date": "01/07/2008",
    "To Date": "30/06/2027",
    "latitude": -27.784609,
    "longitude": 153.003433
  },
  {
    "laboratory": "257",
    "APA Number": "42",
    "ACC": "834",
    "ACC Name": "DOREVITCH PATHOLOGY PATH PREMISES BENALLA HLTH 45-",
    "Suburb / Town": "BENALLA VIC 3672",
    "From Date": "17/07/2006",
    "To Date": "30/06/2027",
    "latitude": -36.546707,
    "longitude": 145.986346
  },
  {
    "laboratory": "258",
    "APA Number": "42",
    "ACC": "846",
    "ACC Name": "QML PATHOLOGY U 3 40-46",
    "Suburb / Town": "DR KIRWAN QLD 4817",
    "From Date": "01/07/2008",
    "To Date": "30/06/2027",
    "latitude": -19.302034,
    "longitude": 146.735287
  },
  {
    "laboratory": "259",
    "APA Number": "42",
    "ACC": "850",
    "ACC Name": "DOREVITCH PATHOLOGY PATH RM KORUMBURRA M/C 50",
    "Suburb / Town": "KORUMBURRA VIC 3950",
    "From Date": "28/08/2006",
    "To Date": "30/06/2027",
    "latitude": -38.431936,
    "longitude": 145.82365
  },
  {
    "laboratory": "260",
    "APA Number": "42",
    "ACC": "853",
    "ACC Name": "QML PATHOLOGY PATH RM LAKE KAWANA GP SE 7 5",
    "Suburb / Town": "BIRTINYA QLD 4575",
    "From Date": "04/09/2006",
    "To Date": "30/06/2027",
    "latitude": -34.908551,
    "longitude": 138.603045
  },
  {
    "laboratory": "261",
    "APA Number": "42",
    "ACC": "854",
    "ACC Name": "QUEENSLAND MEDICAL LAB THE FAMILY PRACT AT HINKLER -",
    "Suburb / Town": "BUNDABERG QLD 4670",
    "From Date": "04/09/2006",
    "To Date": "30/06/2027",
    "latitude": -34.908659,
    "longitude": 138.602852
  },
  {
    "laboratory": "262",
    "APA Number": "42",
    "ACC": "856",
    "ACC Name": "DOREVITCH PATHOLOGY PATH RM ST KILDA RD MED CTR L 1",
    "Suburb / Town": "MELBOURNE VIC 3004",
    "From Date": "02/10/2006",
    "To Date": "30/06/2027",
    "latitude": -37.804617,
    "longitude": 144.769275
  },
  {
    "laboratory": "263",
    "APA Number": "42",
    "ACC": "861",
    "ACC Name": "QML PATHOLOGY PATH RM, QML TCY LOGANLEA M U 1LOGANLEA QLD 4131",
    "Suburb / Town": "",
    "From Date": "01/07/2008",
    "To Date": "30/06/2027",
    "latitude": -25.734968,
    "longitude": 134.489563
  },
  {
    "laboratory": "264",
    "APA Number": "42",
    "ACC": "868",
    "ACC Name": "LAVERTY PATHOLOGY G 155",
    "Suburb / Town": "ST WALLSEND NSW 2287",
    "From Date": "05/11/2006",
    "To Date": "30/06/2027",
    "latitude": -32.899531,
    "longitude": 151.667142
  },
  {
    "laboratory": "265",
    "APA Number": "42",
    "ACC": "870",
    "ACC Name": "QML PATHOLOGY PATH RM MEDICI M/C TNCY 2 13-15",
    "Suburb / Town": "TOOWOOMBA QLD 4350",
    "From Date": "06/11/2006",
    "To Date": "30/06/2027",
    "latitude": -34.908656,
    "longitude": 138.602856
  },
  {
    "laboratory": "266",
    "APA Number": "42",
    "ACC": "875",
    "ACC Name": "DOREVITCH PATHOLOGY PATHOLOGY ROOM U 2 36B",
    "Suburb / Town": "BERWICK VIC 3806",
    "From Date": "04/12/2006",
    "To Date": "30/06/2027",
    "latitude": -38.052692,
    "longitude": 145.339608
  },
  {
    "laboratory": "267",
    "APA Number": "42",
    "ACC": "880",
    "ACC Name": "QML PATHOLOGY U 2 70",
    "Suburb / Town": "RD BEENLEIGH QLD 4207",
    "From Date": "31/12/2006",
    "To Date": "30/06/2027",
    "latitude": -34.908545,
    "longitude": 138.603055
  },
  {
    "laboratory": "268",
    "APA Number": "42",
    "ACC": "881",
    "ACC Name": "DOREVITCH PATHOLOGY PATH SE 1 TOWERHILL M/C 143",
    "Suburb / Town": "FRANKSTON VIC 3199",
    "From Date": "08/01/2007",
    "To Date": "30/06/2027",
    "latitude": -34.304222,
    "longitude": 139.22356
  },
  {
    "laboratory": "269",
    "APA Number": "42",
    "ACC": "885",
    "ACC Name": "LAVERTY PATHOLOGY 56-60",
    "Suburb / Town": "RD ERINA NSW 2250",
    "From Date": "19/01/2007",
    "To Date": "30/06/2027",
    "latitude": -33.440303,
    "longitude": 151.395052
  },
  {
    "laboratory": "270",
    "APA Number": "42",
    "ACC": "886",
    "ACC Name": "LAVERTY PATHOLOGY PATH SE 1 THE ROCK MED CNTR 16",
    "Suburb / Town": "ROCK NSW 2655",
    "From Date": "01/07/2008",
    "To Date": "30/06/2027",
    "latitude": -28.251457,
    "longitude": 153.46609
  },
  {
    "laboratory": "271",
    "APA Number": "42",
    "ACC": "891",
    "ACC Name": "QML PATHOLOGY PATH RM MT WARREN PARK M/C 20- MT WARREN PARK QLD",
    "Suburb / Town": "",
    "From Date": "19/02/2007",
    "To Date": "30/06/2027",
    "latitude": -25.734968,
    "longitude": 134.489563
  },
  {
    "laboratory": "272",
    "APA Number": "42",
    "ACC": "898",
    "ACC Name": "DOREVITCH PATHOLOGY PATH RM WICKLOW AVE M/C 65-67",
    "Suburb / Town": "CROYDON VIC 3136",
    "From Date": "13/03/2007",
    "To Date": "30/06/2027",
    "latitude": -37.788817,
    "longitude": 145.282783
  },
  {
    "laboratory": "273",
    "APA Number": "42",
    "ACC": "902",
    "ACC Name": "QML PATHOLOGY TENANCY D 15",
    "Suburb / Town": "ST NAMBOUR QLD 4560",
    "From Date": "26/03/2007",
    "To Date": "30/06/2027",
    "latitude": -34.908658,
    "longitude": 138.602853
  },
  {
    "laboratory": "274",
    "APA Number": "42",
    "ACC": "904",
    "ACC Name": "QML PATHOLOGY TENANCY 5 121",
    "Suburb / Town": "HARBOUR RDCANNONVALE QLD 4802",
    "From Date": "26/03/2007",
    "To Date": "30/06/2027",
    "latitude": -20.267597,
    "longitude": 148.71587
  },
  {
    "laboratory": "275",
    "APA Number": "42",
    "ACC": "909",
    "ACC Name": "DOREVITCH PATHOLOGY PATHOLOGY SUITES 74A",
    "Suburb / Town": "ST WANGARATTA VIC 3677",
    "From Date": "10/04/2007",
    "To Date": "30/06/2027",
    "latitude": -36.355304,
    "longitude": 146.322648
  },
  {
    "laboratory": "276",
    "APA Number": "42",
    "ACC": "911",
    "ACC Name": "LAVERTY PATHOLOGY PATH SE 1 MEROO ST FAM PRAC 1",
    "Suburb / Town": "BOMADERRY NSW 2541",
    "From Date": "16/04/2007",
    "To Date": "30/06/2027",
    "latitude": -34.853264,
    "longitude": 150.60957
  },
  {
    "laboratory": "277",
    "APA Number": "42",
    "ACC": "922",
    "ACC Name": "WESTERN DIAGNOSTIC PATH PATH SE 3 SPENCER RD MPC 2",
    "Suburb / Town": "HUNTINGDALE WA 6110",
    "From Date": "01/05/2007",
    "To Date": "30/06/2027",
    "latitude": -32.081722,
    "longitude": 115.968976
  },
  {
    "laboratory": "278",
    "APA Number": "42",
    "ACC": "925",
    "ACC Name": "WESTERN DIAGNOSTIC PATH PATHOLOGY SUITE 38",
    "Suburb / Town": "RD SPENCER PARK WA 6330",
    "From Date": "01/05/2007",
    "To Date": "30/06/2027",
    "latitude": -35.008047,
    "longitude": 117.895514
  },
  {
    "laboratory": "279",
    "APA Number": "42",
    "ACC": "926",
    "ACC Name": "WESTERN DIAGNOSTIC PATH CLP BUILDING SHOP 5 82-84 TODD ALICE SPRINGS NT 870",
    "Suburb / Town": "",
    "From Date": "01/05/2007",
    "To Date": "30/06/2027",
    "latitude": -25.734968,
    "longitude": 134.489563
  },
  {
    "laboratory": "280",
    "APA Number": "42",
    "ACC": "930",
    "ACC Name": "WESTERN DIAGNOSTIC PATH BAYSWATER PHYSIOTHERAPY SE 7",
    "Suburb / Town": "BAYSWATER WA 6053",
    "From Date": "01/05/2007",
    "To Date": "30/06/2027",
    "latitude": -34.850312,
    "longitude": 138.524516
  },
  {
    "laboratory": "281",
    "APA Number": "42",
    "ACC": "934",
    "ACC Name": "WESTERN DIAGNOSTIC PATH PATH ROOM WA CARDIOLOGY U 1",
    "Suburb / Town": "BENTLEY WA 6102",
    "From Date": "01/05/2007",
    "To Date": "30/06/2027",
    "latitude": -32.0073,
    "longitude": 115.90586
  },
  {
    "laboratory": "282",
    "APA Number": "42",
    "ACC": "945",
    "ACC Name": "WESTERN DIAGNOSTIC PATH PATH AREA BETHESDA HOSP 25",
    "Suburb / Town": "CLAREMONT WA 6010",
    "From Date": "01/05/2007",
    "To Date": "30/06/2027",
    "latitude": -31.982668,
    "longitude": 115.78287
  },
  {
    "laboratory": "283",
    "APA Number": "42",
    "ACC": "946",
    "ACC Name": "WESTERN DIAGNOSTIC PATH PATHOLOGY ROOM 373",
    "Suburb / Town": "CLOVERDALE WA 6105",
    "From Date": "01/05/2007",
    "To Date": "30/06/2027",
    "latitude": -31.956179,
    "longitude": 115.937367
  },
  {
    "laboratory": "284",
    "APA Number": "42",
    "ACC": "950",
    "ACC Name": "LAVERTY PATHOLOGY TAMWORTH HOMESPACE SHOP 15B",
    "Suburb / Town": "TAMWORTH NSW 2340",
    "From Date": "01/07/2008",
    "To Date": "30/06/2027",
    "latitude": -31.09014,
    "longitude": 150.92932
  },
  {
    "laboratory": "285",
    "APA Number": "42",
    "ACC": "954",
    "ACC Name": "LAVERTY PATHOLOGY PATH SE YAMBA MED CTR 18",
    "Suburb / Town": "YAMBA NSW 2464",
    "From Date": "01/07/2008",
    "To Date": "30/06/2027",
    "latitude": -29.438728,
    "longitude": 153.362861
  },
  {
    "laboratory": "286",
    "APA Number": "42",
    "ACC": "958",
    "ACC Name": "WESTERN DIAGNOSTIC PATH PATHOLOGY ROOM U 1 9",
    "Suburb / Town": "GREENWOOD WA 6024",
    "From Date": "01/05/2007",
    "To Date": "30/06/2027",
    "latitude": -31.829536,
    "longitude": 115.79508
  },
  {
    "laboratory": "287",
    "APA Number": "42",
    "ACC": "960",
    "ACC Name": "WESTERN DIAGNOSTIC PATH JANDAKOT MEDICAL CENTRE U 2 850JANDAKOT WA 6164",
    "Suburb / Town": "",
    "From Date": "01/05/2007",
    "To Date": "30/06/2027",
    "latitude": -25.734968,
    "longitude": 134.489563
  },
  {
    "laboratory": "288",
    "APA Number": "42",
    "ACC": "963",
    "ACC Name": "WESTERN DIAGNOSTIC PATH PATH RM SEACREST M/C 28",
    "Suburb / Town": "SORRENTO WA 6020",
    "From Date": "01/05/2007",
    "To Date": "30/06/2027",
    "latitude": -31.859653,
    "longitude": 115.756305
  },
  {
    "laboratory": "289",
    "APA Number": "42",
    "ACC": "964",
    "ACC Name": "WESTERN",
    "Suburb / Town": "PATH PATH RM GOLDFIELDS MED CTR SE KALGOORLIE WA 6430",
    "From Date": "01/05/2007",
    "To Date": "30/06/2027",
    "latitude": -32.004079,
    "longitude": 115.942215
  },
  {
    "laboratory": "290",
    "APA Number": "42",
    "ACC": "966",
    "ACC Name": "WESTERN DIAGNOSTIC PATH P/RM KARRATHA VILLAGE S/C U 37 5",
    "Suburb / Town": "KARRATHA WA 6714",
    "From Date": "01/05/2007",
    "To Date": "30/06/2027",
    "latitude": -20.735645,
    "longitude": 116.84472
  },
  {
    "laboratory": "291",
    "APA Number": "42",
    "ACC": "967",
    "ACC Name": "WESTERN DIAGNOSTIC PATH PATH SUITE KINTORE CLINIC 36 KATHERINE NT 850",
    "Suburb / Town": "",
    "From Date": "01/05/2007",
    "To Date": "30/06/2027",
    "latitude": -25.734968,
    "longitude": 134.489563
  },
  {
    "laboratory": "292",
    "APA Number": "42",
    "ACC": "972",
    "ACC Name": "WESTERN DIAGNOSTIC PATH PATH RM MURRAY MED CENTR SE 3",
    "Suburb / Town": "GREENFIELDS WA 6210",
    "From Date": "01/05/2007",
    "To Date": "30/06/2027",
    "latitude": -32.523773,
    "longitude": 115.7617
  },
  {
    "laboratory": "293",
    "APA Number": "42",
    "ACC": "973",
    "ACC Name": "WESTERN DIAGNOSTIC PATH PATH SE PEEL HEALTH CAMPUS 110",
    "Suburb / Town": "MANDURAH WA 6210",
    "From Date": "01/05/2007",
    "To Date": "30/06/2027",
    "latitude": -32.52993,
    "longitude": 115.720566
  },
  {
    "laboratory": "294",
    "APA Number": "42",
    "ACC": "975",
    "ACC Name": "WESTERN DIAGNOSTIC PATH PATH RM DUDLEY PARK M/C U 1 15",
    "Suburb / Town": "MANDURAH WA 6210",
    "From Date": "01/05/2007",
    "To Date": "30/06/2027",
    "latitude": -32.52993,
    "longitude": 115.720566
  },
  {
    "laboratory": "295",
    "APA Number": "42",
    "ACC": "976",
    "ACC Name": "LAVERTY PATHOLOGY PATH RM KOOTINGAL G/P SE B 3",
    "Suburb / Town": "KOOTINGAL NSW 2352",
    "From Date": "01/07/2008",
    "To Date": "26/11/2025",
    "latitude": -31.05729,
    "longitude": 151.0541
  },
  {
    "laboratory": "296",
    "APA Number": "42",
    "ACC": "978",
    "ACC Name": "LAVERTY PATHOLOGY PATH SE UNION ST FMP 11",
    "Suburb / Town": "STMACLEAN NSW 2463",
    "From Date": "01/07/2008",
    "To Date": "30/06/2027",
    "latitude": -29.500154,
    "longitude": 153.243361
  },
  {
    "laboratory": "297",
    "APA Number": "42",
    "ACC": "983",
    "ACC Name": "WESTERN DIAGNOSTIC PATH THE QUEENS U 6 85 THE MOUNT PLEASANT WA",
    "Suburb / Town": "",
    "From Date": "01/05/2007",
    "To Date": "30/06/2027",
    "latitude": -25.734968,
    "longitude": 134.489563
  },
  {
    "laboratory": "298",
    "APA Number": "42",
    "ACC": "986",
    "ACC Name": "WESTERN DIAGNOSTIC PATH PATHOLOGY SUITE U 17 217",
    "Suburb / Town": "NOLLAMARA WA 6061",
    "From Date": "01/05/2007",
    "To Date": "30/06/2027",
    "latitude": -31.880798,
    "longitude": 115.8429
  },
  {
    "laboratory": "299",
    "APA Number": "42",
    "ACC": "989",
    "ACC Name": "WESTERN DIAGNOSTIC PATH SOUTH ST MEDICAL UNIT 7 & 8 386 O'CONNOR WA 6163",
    "Suburb / Town": "",
    "From Date": "01/05/2007",
    "To Date": "30/06/2027",
    "latitude": -25.734968,
    "longitude": 134.489563
  },
  {
    "laboratory": "300",
    "APA Number": "42",
    "ACC": "994",
    "ACC Name": "WESTERN",
    "Suburb / Town": "PATH MOUNT MC MOUNT PRIVATE HOSP PERTH WA 6000",
    "From Date": "01/05/2007",
    "To Date": "30/06/2027",
    "latitude": -32.122896,
    "longitude": 116.0426
  },
  {
    "laboratory": "301",
    "APA Number": "42",
    "ACC": "997",
    "ACC Name": "WESTERN DIAGNOSTIC PATH HUNDSON HOUSE SE 2 11",
    "Suburb / Town": "ROCKINGHAM WA 6168",
    "From Date": "01/05/2007",
    "To Date": "30/06/2027",
    "latitude": -32.289007,
    "longitude": 115.750874
  },
  {
    "laboratory": "302",
    "APA Number": "42",
    "ACC": "998",
    "ACC Name": "DOREVITCH PATHOLOGY CHURINGA MED CTR PATH SUITE 465KILSYTH VIC 3137",
    "Suburb / Town": "",
    "From Date": "14/05/2007",
    "To Date": "30/06/2027",
    "latitude": -25.734968,
    "longitude": 134.489563
  },
  {
    "laboratory": "303",
    "APA Number": "42",
    "ACC": "1004",
    "ACC Name": "LAVERTY PATHOLOGY COONABARABRAN MED CNTR 61 COONABARABRAN NSW",
    "Suburb / Town": "",
    "From Date": "01/07/2010",
    "To Date": "30/06/2027",
    "latitude": -25.734968,
    "longitude": 134.489563
  },
  {
    "laboratory": "304",
    "APA Number": "42",
    "ACC": "1005",
    "ACC Name": "LAVERTY PATHOLOGY PATH RM TURA BEACH MED CTR 1",
    "Suburb / Town": "BEACH NSW 2548",
    "From Date": "01/07/2010",
    "To Date": "30/06/2027",
    "latitude": -36.887773,
    "longitude": 149.913242
  },
  {
    "laboratory": "305",
    "APA Number": "42",
    "ACC": "1019",
    "ACC Name": "LAVERTY PATHOLOGY PATH RM BV CIRCA M/C SHOP 20 1",
    "Suburb / Town": "VISTA NSW 2153",
    "From Date": "01/07/2010",
    "To Date": "30/06/2027",
    "latitude": -33.890727,
    "longitude": 151.175804
  },
  {
    "laboratory": "306",
    "APA Number": "42",
    "ACC": "1023",
    "ACC Name": "LAVERTY PATHOLOGY PATH RM BOSSLEY PARK M/C 79",
    "Suburb / Town": "PARK NSW 2176",
    "From Date": "01/07/2010",
    "To Date": "30/06/2027",
    "latitude": -33.862644,
    "longitude": 150.88437
  },
  {
    "laboratory": "307",
    "APA Number": "42",
    "ACC": "1033",
    "ACC Name": "DOREVITCH PATHOLOGY PATHOLOGY ROOM SHOP 3 136-140",
    "Suburb / Town": "FOOTSCRAY VIC 3011",
    "From Date": "01/07/2010",
    "To Date": "30/06/2027",
    "latitude": -37.800455,
    "longitude": 144.899457
  },
  {
    "laboratory": "308",
    "APA Number": "42",
    "ACC": "1040",
    "ACC Name": "DOREVITCH PATHOLOGY PATH RM 1 AUST MEN'S HLTH G 322",
    "Suburb / Town": "MALVERN VIC 3144",
    "From Date": "01/07/2010",
    "To Date": "30/06/2027",
    "latitude": -37.852026,
    "longitude": 145.033022
  },
  {
    "laboratory": "309",
    "APA Number": "42",
    "ACC": "1041",
    "ACC Name": "DOREVITCH PATHOLOGY MODERN MEDICAL DANDENONG 176",
    "Suburb / Town": "DANDENONG VIC 3175",
    "From Date": "01/07/2010",
    "To Date": "30/06/2027",
    "latitude": -37.993205,
    "longitude": 145.199734
  },
  {
    "laboratory": "310",
    "APA Number": "42",
    "ACC": "1052",
    "ACC Name": "QML PATHOLOGY EXCELSIOR MED CTR LEASE A 21",
    "Suburb / Town": "GYMPIE QLD 4570",
    "From Date": "01/07/2010",
    "To Date": "30/06/2027",
    "latitude": -34.908658,
    "longitude": 138.602853
  },
  {
    "laboratory": "311",
    "APA Number": "42",
    "ACC": "1056",
    "ACC Name": "QML PATHOLOGY NARANGBA MED &",
    "Suburb / Town": "CNTR SHOPNARANGBA QLD 4504",
    "From Date": "01/07/2010",
    "To Date": "30/06/2027",
    "latitude": -37.034318,
    "longitude": 143.735632
  },
  {
    "laboratory": "312",
    "APA Number": "42",
    "ACC": "1067",
    "ACC Name": "QML PATHOLOGY TENANCY D COURTS CORNER 142",
    "Suburb / Town": "MACKAY QLD 4740",
    "From Date": "01/07/2010",
    "To Date": "30/06/2027",
    "latitude": -34.908659,
    "longitude": 138.602851
  },
  {
    "laboratory": "313",
    "APA Number": "42",
    "ACC": "1074",
    "ACC Name": "QML PATHOLOGY CALAMVALE CENTRAL S/C SHOP 64",
    "Suburb / Town": "CALAMVALE QLD 4116",
    "From Date": "01/07/2010",
    "To Date": "30/06/2027",
    "latitude": -34.908655,
    "longitude": 138.602859
  },
  {
    "laboratory": "314",
    "APA Number": "42",
    "ACC": "1079",
    "ACC Name": "QML PATHOLOGY POTTSVILLE PLAZA SHOP 8 5",
    "Suburb / Town": "POTTSVILLE NSW 2489",
    "From Date": "01/07/2010",
    "To Date": "30/06/2027",
    "latitude": -28.388862,
    "longitude": 153.548364
  },
  {
    "laboratory": "315",
    "APA Number": "42",
    "ACC": "1080",
    "ACC Name": "QML PATHOLOGY THE VILLAGE PLACE SC SHOP 1 7",
    "Suburb / Town": "VILLAGE QLD 4207",
    "From Date": "01/07/2010",
    "To Date": "30/06/2027",
    "latitude": -27.762438,
    "longitude": 153.107928
  },
  {
    "laboratory": "316",
    "APA Number": "42",
    "ACC": "1081",
    "ACC Name": "QML PATHOLOGY BEAUDESERT CENTRAL S/C SH 5",
    "Suburb / Town": "BEAUDESERT QLD 4285",
    "From Date": "01/07/2010",
    "To Date": "30/06/2027",
    "latitude": -34.908546,
    "longitude": 138.603053
  },
  {
    "laboratory": "317",
    "APA Number": "42",
    "ACC": "1084",
    "ACC Name": "QML PATHOLOGY SOUTHSIDE CENTRAL S/C SHOP 7B",
    "Suburb / Town": "WALKERVALE QLD 4670",
    "From Date": "01/07/2010",
    "To Date": "30/06/2027",
    "latitude": -34.908659,
    "longitude": 138.602852
  },
  {
    "laboratory": "318",
    "APA Number": "42",
    "ACC": "1087",
    "ACC Name": "QML PATHOLOGY PANDANUS SHOP 1 15-21",
    "Suburb / Town": "ST MOOLOOLABA QLD 4557",
    "From Date": "01/07/2010",
    "To Date": "30/06/2027",
    "latitude": -26.681407,
    "longitude": 153.11812
  },
  {
    "laboratory": "319",
    "APA Number": "42",
    "ACC": "1092",
    "ACC Name": "QML PATHOLOGY SHOP 4B 618",
    "Suburb / Town": "BAY RD DECEPTION BAY QLD 4508",
    "From Date": "01/07/2010",
    "To Date": "30/06/2027",
    "latitude": -27.18955,
    "longitude": 153.015769
  },
  {
    "laboratory": "320",
    "APA Number": "42",
    "ACC": "1094",
    "ACC Name": "QML PATHOLOGY CARSELDINE CENTRAL S/C",
    "Suburb / Town": "CARSELDINE QLD 4034",
    "From Date": "01/07/2010",
    "To Date": "30/06/2027",
    "latitude": -34.908654,
    "longitude": 138.60286
  },
  {
    "laboratory": "321",
    "APA Number": "42",
    "ACC": "1095",
    "ACC Name": "QML PATHOLOGY BENDIGO BANK PLACE SHOP 13 127",
    "Suburb / Town": "POINT QLD 4165",
    "From Date": "01/07/2010",
    "To Date": "30/06/2027",
    "latitude": -27.584593,
    "longitude": 153.29764
  },
  {
    "laboratory": "322",
    "APA Number": "42",
    "ACC": "1102",
    "ACC Name": "WESTERN DIAGNOSTIC PATH FORREST FAMILY PRACTICE SE 5",
    "Suburb / Town": "BUNBURY WA 6230",
    "From Date": "01/07/2010",
    "To Date": "30/06/2027",
    "latitude": -33.32216,
    "longitude": 115.638275
  },
  {
    "laboratory": "323",
    "APA Number": "42",
    "ACC": "1134",
    "ACC Name": "DOREVITCH PATHOLOGY PATH RM STRATHFIELDSAYE P/H 34 STRATHFIELDSAYE VIC",
    "Suburb / Town": "",
    "From Date": "01/07/2010",
    "To Date": "30/06/2027",
    "latitude": -25.734968,
    "longitude": 134.489563
  },
  {
    "laboratory": "324",
    "APA Number": "42",
    "ACC": "1135",
    "ACC Name": "DOREVITCH PATHOLOGY PATH RM LINACRE PVT HOSP 12",
    "Suburb / Town": "HAMPTON VIC 3188",
    "From Date": "01/07/2010",
    "To Date": "30/06/2027",
    "latitude": -37.938318,
    "longitude": 145.002355
  },
  {
    "laboratory": "325",
    "APA Number": "42",
    "ACC": "1136",
    "ACC Name": "DOREVITCH PATHOLOGY PATH RM MOUNT STREET M/C 80",
    "Suburb / Town": "HEIDELBERG VIC 3084",
    "From Date": "01/07/2010",
    "To Date": "30/06/2027",
    "latitude": -25.314524,
    "longitude": 152.898304
  },
  {
    "laboratory": "326",
    "APA Number": "42",
    "ACC": "1137",
    "ACC Name": "DOREVITCH PATHOLOGY PATHOLOGY ROOM 1 317",
    "Suburb / Town": "ST PRESTON VIC 3072",
    "From Date": "01/07/2010",
    "To Date": "30/06/2027",
    "latitude": -37.752091,
    "longitude": 145.001686
  },
  {
    "laboratory": "327",
    "APA Number": "42",
    "ACC": "1143",
    "ACC Name": "DOREVITCH PATHOLOGY PATH RM ST JAMES AVE M/C 10",
    "Suburb / Town": "SPRINGVALE VIC 3171",
    "From Date": "01/07/2010",
    "To Date": "30/06/2027",
    "latitude": -37.935051,
    "longitude": 145.170387
  },
  {
    "laboratory": "328",
    "APA Number": "42",
    "ACC": "1150",
    "ACC Name": "DOREVITCH PATHOLOGY PTH SE SOMERVILLE VILL CLNC 25",
    "Suburb / Town": "SOMERVILLE VIC 3912",
    "From Date": "01/07/2010",
    "To Date": "30/06/2027",
    "latitude": -25.313765,
    "longitude": 152.898152
  },
  {
    "laboratory": "329",
    "APA Number": "42",
    "ACC": "1153",
    "ACC Name": "DOREVITCH PATHOLOGY PATH RM SHOP 1 28",
    "Suburb / Town": "ST BRIGHTON VIC 3186",
    "From Date": "01/07/2010",
    "To Date": "30/06/2027",
    "latitude": -37.911965,
    "longitude": 144.997915
  },
  {
    "laboratory": "330",
    "APA Number": "42",
    "ACC": "1157",
    "ACC Name": "DOREVITCH PATHOLOGY ROWVILLE CENTRAL CLINIC SE 1&2 7ROWVILLE VIC 3178",
    "Suburb / Town": "",
    "From Date": "01/07/2010",
    "To Date": "30/06/2027",
    "latitude": -25.734968,
    "longitude": 134.489563
  },
  {
    "laboratory": "331",
    "APA Number": "42",
    "ACC": "1158",
    "ACC Name": "DOREVITCH PATHOLOGY PTH SE ST KILDA STH MED CLN 26B",
    "Suburb / Town": "ELWOOD VIC 3184",
    "From Date": "01/07/2010",
    "To Date": "30/06/2027",
    "latitude": -37.884789,
    "longitude": 144.986639
  },
  {
    "laboratory": "332",
    "APA Number": "42",
    "ACC": "1159",
    "ACC Name": "DOREVITCH PATHOLOGY PATH SE DOVECARE MED CTR U 3",
    "Suburb / Town": "DOVETON VIC 3177",
    "From Date": "01/07/2010",
    "To Date": "30/06/2027",
    "latitude": -37.99508,
    "longitude": 145.238013
  },
  {
    "laboratory": "333",
    "APA Number": "42",
    "ACC": "1174",
    "ACC Name": "LAVERTY PATHOLOGY SHOPS 3 & 4 133",
    "Suburb / Town": "RIVER RD REVESBY NSW 2212",
    "From Date": "01/07/2010",
    "To Date": "30/06/2027",
    "latitude": -33.954361,
    "longitude": 151.017004
  },
  {
    "laboratory": "334",
    "APA Number": "42",
    "ACC": "1192",
    "ACC Name": "LAVERTY PATHOLOGY PATH SE BOTANY M/C T3 & T4 FL 1 &",
    "Suburb / Town": "BOTANY NSW 2019",
    "From Date": "19/07/2010",
    "To Date": "18/07/2027",
    "latitude": -33.944766,
    "longitude": 151.196532
  },
  {
    "laboratory": "335",
    "APA Number": "42",
    "ACC": "1197",
    "ACC Name": "LAVERTY",
    "Suburb / Town": "GLENROCK COUNTRY PRACTICE LAKE ALBERT NSW 2650",
    "From Date": "19/07/2010",
    "To Date": "18/07/2027",
    "latitude": -35.141811,
    "longitude": 147.374919
  },
  {
    "laboratory": "336",
    "APA Number": "42",
    "ACC": "1200",
    "ACC Name": "LAVERTY PATHOLOGY GROUND FLOOR SHOP 293",
    "Suburb / Town": "EARLWOOD NSW 2206",
    "From Date": "19/07/2010",
    "To Date": "18/07/2027",
    "latitude": -33.928097,
    "longitude": 151.121734
  },
  {
    "laboratory": "337",
    "APA Number": "42",
    "ACC": "1201",
    "ACC Name": "LAVERTY PATHOLOGY PATH SE HAMMOND RD M/C 64",
    "Suburb / Town": "NORAVILLE NSW 2263",
    "From Date": "19/07/2010",
    "To Date": "18/07/2027",
    "latitude": -33.268517,
    "longitude": 151.55652
  },
  {
    "laboratory": "338",
    "APA Number": "42",
    "ACC": "1203",
    "ACC Name": "LAVERTY PATHOLOGY PATHOLOGY ROOM U 1 122",
    "Suburb / Town": "GEORGESINGLETON NSW 2330",
    "From Date": "19/07/2010",
    "To Date": "18/07/2027",
    "latitude": -33.516837,
    "longitude": 151.315169
  },
  {
    "laboratory": "339",
    "APA Number": "42",
    "ACC": "1204",
    "ACC Name": "QML PATHOLOGY QML PATH TENANCY G 16-18",
    "Suburb / Town": "PARK QLD 4812",
    "From Date": "26/07/2010",
    "To Date": "25/07/2027",
    "latitude": -19.285621,
    "longitude": 146.788694
  },