[
  {
    "laboratory": "1",
    "APA Number": "26",
    "ACC": "1",
    "ACC Name": "JOLIMONT LABORATORY DOREVITCH PATHOLOGY",
    "Address": "116-118 WELLINGTON PDE",
    "Suburb / Town": "EAST MELBOURNE VIC 3002",
    "From Date": "01/02/1992",
    "To Date": "30/06/2027",
    "latitude": -37.816301,
    "longitude": 144.986307,
    "geocode_method": "Full Address"
  },
  {
    "laboratory": "2",
    "APA Number": "42",
    "ACC": "3",
    "ACC Name": "QML PATHOLOGY",
    "Address": "G 32 BRIDGE ST 2LOGAN",
    "Suburb / Town": "BENDIGO VIC 3550 CENTRAL QLD 411401/07/2008",
    "From Date": "",
    "To Date": "30/06/2027",
    "latitude": -36.753278,
    "longitude": 144.283646,
    "geocode_method": "Full Address"
  },
  {
    "laboratory": "3",
    "APA Number": "42",
    "ACC": "12",
    "ACC Name": "",
    "Address": "PATH RM LOGAN CITY S/C SHOP 16 WEMBLEY RD",
    "Suburb / Town": "",
    "From Date": "",
    "To Date": "",
    "latitude": null,
    "longitude": null,
    "geocode_method": "No result"
  },
  {
    "laboratory": "4",
    "APA Number": "42",
    "ACC": "",
    "ACC Name": "LAVERTY PATHOLOGY DOREVITCH PATHOLOGY",
    "Address": "ROOMS 3 & 6, WAITING AREA SHOP 226B 6-14 CASTLE ST",
    "Suburb / Town": "CASTLE HILL NSW 2154",
    "From Date": "01/07/2008",
    "To Date": "30/06/2027",
    "latitude": -33.730393,
    "longitude": 151.006391,
    "geocode_method": "Full Address"
  },
  {
    "laboratory": "5",
    "APA Number": "42",
    "ACC": "16",
    "ACC Name": "DOREVITCH PATHOLOGY",
    "Address": "PATHOLOGY SUITE 102 STATION RD",
    "Suburb / Town": "FOSTER VIC 3960 CROYDON VIC 3136",
    "From Date": "",
    "To Date": "30/06/2027",
    "latitude": -38.65748,
    "longitude": 146.204795,
    "geocode_method": "Full Address"
  },
  {
    "laboratory": "6",
    "APA Number": "42",
    "ACC": "19",
    "ACC Name": "",
    "Address": "157-159 MT DANDENONG RD",
    "Suburb / Town": "",
    "From Date": "",
    "To Date": "",
    "latitude": null,
    "longitude": null,
    "geocode_method": "No result"
  },
  {
    "laboratory": "7",
    "APA Number": "42",
    "ACC": "",
    "ACC Name": "DOREVITCH PATHOLOGY DOREVITCH PATHOLOGY",
    "Address": "OFFICE SUITE 4005 619 DONCASTER RD",
    "Suburb / Town": "DONCASTER VIC 3108",
    "From Date": "01/02/1992",
    "To Date": "30/06/2027",
    "latitude": -37.784718,
    "longitude": 145.126003,
    "geocode_method": "Full Address"
  },
  {
    "laboratory": "8",
    "APA Number": "42",
    "ACC": "28",
    "ACC Name": "",
    "Address": "PATH RM ROSANNA MED GRP 88 LOWER PLENTY RD",
    "Suburb / Town": "ROSANNA VIC 3084",
    "From Date": "",
    "To Date": "30/06/2027",
    "latitude": -37.743513,
    "longitude": 145.06449,
    "geocode_method": "Full Address"
  },
  {
    "laboratory": "9",
    "APA Number": "42",
    "ACC": "29",
    "ACC Name": "DOREVITCH PATHOLOGY",
    "Address": "222 SPRINGVALE RD",
    "Suburb / Town": "GLEN WAVERLEY VIC 3150",
    "From Date": "01/02/1992",
    "To Date": "30/06/2027",
    "latitude": -37.876291,
    "longitude": 145.166745,
    "geocode_method": "Full Address"
  },
  {
    "laboratory": "10",
    "APA Number": "42",
    "ACC": "30",
    "ACC Name": "QML PATHOLOGY DOREVITCH PATHOLOGY",
    "Address": "TENANCY B G 41 ARTHUR ST",
    "Suburb / Town": "YEPPOON QLD 4703",
    "From Date": "01/07/2007",
    "To Date": "30/06/2027",
    "latitude": -23.127946,
    "longitude": 150.743358,
    "geocode_method": "Full Address"
  },
  {
    "laboratory": "11",
    "APA Number": "42",
    "ACC": "31",
    "ACC Name": "",
    "Address": "PATH RM WONTHAGGI MED GRP 42- 44 MURRAY ST",
    "Suburb / Town": "WONTHAGGI VIC 3995",
    "From Date": "",
    "To Date": "30/06/2027",
    "latitude": -38.605175,
    "longitude": 145.588222,
    "geocode_method": "Full Address"
  },
  {
    "laboratory": "12",
    "APA Number": "42",
    "ACC": "35",
    "ACC Name": "DOREVITCH PATHOLOGY LAVERTY PATHOLOGY",
    "Address": "JOHN FAWKNER PVTE HOSPITAL 275COBURG MORELAND RD",
    "Suburb / Town": "VIC 3058 BEROWRA HEIGHTS NSW",
    "From Date": "01/02/1992",
    "To Date": "30/06/2027",
    "latitude": -33.61346,
    "longitude": 151.13983,
    "geocode_method": "Original Suburb"
  },
  {
    "laboratory": "13",
    "APA Number": "42",
    "ACC": "39",
    "ACC Name": "",
    "Address": "PATH SE 1 BEROWRA VILL MC 1A TURNER RD",
    "Suburb / Town": "2082",
    "From Date": "",
    "To Date": "",
    "latitude": -33.613459,
    "longitude": 151.139824,
    "geocode_method": "Postcode"
  },
  {
    "laboratory": "14",
    "APA Number": "42",
    "ACC": "",
    "ACC Name": "DOREVITCH PATHOLOGY DOREVITCH PATHOLOGY",
    "Address": "PATHOLOGY ROOM SE 4 L 9 20 COLLINS ST",
    "Suburb / Town": "MELBOURNE VIC 3000",
    "From Date": "01/02/1992",
    "To Date": "30/06/2027",
    "latitude": -37.813413,
    "longitude": 144.972951,
    "geocode_method": "Full Address"
  },
  {
    "laboratory": "15",
    "APA Number": "42",
    "ACC": "45",
    "ACC Name": "DOREVITCH PATHOLOGY",
    "Address": "53 VICTORIA ST",
    "Suburb / Town": "BALLARAT VIC 3350 WANGARATTA VIC 3676",
    "From Date": "",
    "To Date": "30/06/2027",
    "latitude": -37.562205,
    "longitude": 143.866963,
    "geocode_method": "Full Address"
  },
  {
    "laboratory": "16",
    "APA Number": "42",
    "ACC": "46",
    "ACC Name": "",
    "Address": "PATH RM WANGARATTA PVT HOSP Address 29 CLARK ST",
    "Suburb / Town": "",
    "From Date": "",
    "To Date": "",
    "latitude": null,
    "longitude": null,
    "geocode_method": "No result"
  },
  {
    "laboratory": "17",
    "APA Number": "42",
    "ACC": "",
    "ACC Name": "QML PATHOLOGY DOREVITCH PATHOLOGY",
    "Address": "NERANG MALL SHOP T41 25 GILSTON RD",
    "Suburb / Town": "NERANG QLD 4211",
    "From Date": "01/07/2008",
    "To Date": "30/06/2027",
    "latitude": -28.020895,
    "longitude": 153.310442,
    "geocode_method": "Full Address"
  },
  {
    "laboratory": "18",
    "APA Number": "42",
    "ACC": "61",
    "ACC Name": "",
    "Address": "PATH RM HALLAM FAM PRAC 214 PRINCES HWY",
    "Suburb / Town": "HALLAM VIC 3803",
    "From Date": "",
    "To Date": "30/06/2027",
    "latitude": -38.005651,
    "longitude": 145.271753,
    "geocode_method": "Full Address"
  },
  {
    "laboratory": "19",
    "APA Number": "42",
    "ACC": "62",
    "ACC Name": "DOREVITCH PATHOLOGY",
    "Address": "UNIT 4 212 CLAYTON RD",
    "Suburb / Town": "CLAYTON VIC 3168",
    "From Date": "28/10/1992",
    "To Date": "30/06/2027",
    "latitude": -37.918626,
    "longitude": 145.121472,
    "geocode_method": "Full Address"
  },
  {
    "laboratory": "20",
    "APA Number": "42",
    "ACC": "67",
    "ACC Name": "LAVERTY PATHOLOGY DOREVITCH PATHOLOGY",
    "Address": "UNIT 1A 15 ARNOTT ST",
    "Suburb / Town": "EDGEWORTH NSW 2285",
    "From Date": "01/07/2006",
    "To Date": "30/06/2027",
    "latitude": -32.924967,
    "longitude": 151.62268,
    "geocode_method": "Full Address"
  },
  {
    "laboratory": "21",
    "APA Number": "42",
    "ACC": "73",
    "ACC Name": "QML PATHOLOGY",
    "Address": "PATHOLOGY SUITE 1 79-81 ROSE ST",
    "Suburb / Town": "ESSENDON VIC 3040 GOONDIWINDI QLD 4390",
    "From Date": "",
    "To Date": "30/06/2027",
    "latitude": -37.754815,
    "longitude": 144.915447,
    "geocode_method": "Full Address"
  },
  {
    "laboratory": "22",
    "APA Number": "42",
    "ACC": "74",
    "ACC Name": "",
    "Address": "SHOP 2 130 MARSHALL ST",
    "Suburb / Town": "",
    "From Date": "",
    "To Date": "",
    "latitude": null,
    "longitude": null,
    "geocode_method": "No result"
  },
  {
    "laboratory": "23",
    "APA Number": "42",
    "ACC": "",
    "ACC Name": "DOREVITCH PATHOLOGY DOREVITCH PATHOLOGY",
    "Address": "WILLIAMSTOWN SPECIALIST CTR RMWILLIAMSTOWN 8-13 87 FERGUSON ST",
    "Suburb / Town": "VIC 3016",
    "From Date": "01/02/1994",
    "To Date": "30/06/2027",
    "latitude": -37.852478,
    "longitude": 144.867736,
    "geocode_method": "Postcode"
  },
  {
    "laboratory": "24",
    "APA Number": "42",
    "ACC": "78",
    "ACC Name": "DOREVITCH PATHOLOGY",
    "Address": "PATH RM U 1 2 RAMSAY PL",
    "Suburb / Town": "ALBURY NSW 2640 HEIDELBERG VIC 3084",
    "From Date": "",
    "To Date": "30/06/2027",
    "latitude": -36.076217,
    "longitude": 146.884248,
    "geocode_method": "Full Address"
  },
  {
    "laboratory": "25",
    "APA Number": "42",
    "ACC": "81",
    "ACC Name": "",
    "Address": "SUITE 15 214-216 BURGUNDY ST",
    "Suburb / Town": "",
    "From Date": "",
    "To Date": "",
    "latitude": null,
    "longitude": null,
    "geocode_method": "No result"
  },
  {
    "laboratory": "26",
    "APA Number": "42",
    "ACC": "",
    "ACC Name": "DOREVITCH PATHOLOGY",
    "Address": "107 JUKES RD",
    "Suburb / Town": "FAWKNER VIC 3060",
    "From Date": "01/07/2008",
    "To Date": "30/06/2027",
    "latitude": -37.70203,
    "longitude": 144.967336,
    "geocode_method": "Full Address"
  },
  {
    "laboratory": "27",
    "APA Number": "42",
    "ACC": "83",
    "ACC Name": "DOREVITCH PATHOLOGY LAVERTY PATHOLOGY",
    "Address": "PATH RM LAKKIS OPTOMETRY 232 MILLEARA RD",
    "Suburb / Town": "KEILOR EAST VIC 3033 NEWPORT NSW 2106",
    "From Date": "03/10/1994",
    "To Date": "30/06/2027",
    "latitude": -37.748933,
    "longitude": 144.862527,
    "geocode_method": "Full Address"
  },
  {
    "laboratory": "28",
    "APA Number": "42",
    "ACC": "85",
    "ACC Name": "",
    "Address": "PATHOLOGY ROOM 1 SHOP 17 355 BARRENJOEY RD",
    "Suburb / Town": "",
    "From Date": "",
    "To Date": "",
    "latitude": null,
    "longitude": null,
    "geocode_method": "No result"
  },
  {
    "laboratory": "29",
    "APA Number": "42",
    "ACC": "87",
    "ACC Name": "DOREVITCH PATHOLOGY",
    "Address": "PATH RM NUNAWADING CLINIC 176 SPRINGVALE RD",
    "Suburb / Town": "NUNAWADING VIC 3131",
    "From Date": "01/07/2008",
    "To Date": "30/06/2027",
    "latitude": -37.82133,
    "longitude": 145.175102,
    "geocode_method": "Full Address"
  },
  {
    "laboratory": "30",
    "APA Number": "42",
    "ACC": "",
    "ACC Name": "LAVERTY PATHOLOGY DOREVITCH PATHOLOGY",
    "Address": "PATH RM LINDFIELD FAM MED SE 26 12-18 TRYON RD",
    "Suburb / Town": "LINDFIELD NSW 2070",
    "From Date": "01/07/2008",
    "To Date": "30/06/2027",
    "latitude": -33.774762,
    "longitude": 151.170634,
    "geocode_method": "Full Address"
  },
  {
    "laboratory": "31",
    "APA Number": "42",
    "ACC": "91",
    "ACC Name": "",
    "Address": "GROUND FLOOR SUITE 1 G 262 SPRINGVALE RD",
    "Suburb / Town": "GLEN WAVERLEY VIC 3150",
    "From Date": "",
    "To Date": "30/06/2027",
    "latitude": -37.880302,
    "longitude": 145.165993,
    "geocode_method": "Full Address"
  },
  {
    "laboratory": "32",
    "APA Number": "42",
    "ACC": "92",
    "ACC Name": "LAVERTY PATHOLOGY DOREVITCH PATHOLOGY",
    "Address": "PATH R&W SYD NEURO & MED S SE 17 468-472 KINGSWAY",
    "Suburb / Town": "MIRANDA NSW 2228 ELSTERNWICK VIC 3185",
    "From Date": "01/07/2007",
    "To Date": "30/06/2027",
    "latitude": -34.035444,
    "longitude": 151.112979,
    "geocode_method": "Full Address"
  },
  {
    "laboratory": "33",
    "APA Number": "42",
    "ACC": "94",
    "ACC Name": "",
    "Address": "602 GLENHUNTLY RD",
    "Suburb / Town": "",
    "From Date": "",
    "To Date": "",
    "latitude": null,
    "longitude": null,
    "geocode_method": "No result"
  },
  {
    "laboratory": "34",
    "APA Number": "42",
    "ACC": "",
    "ACC Name": "DOREVITCH PATHOLOGY",
    "Address": "RMS 3130 & 3650 DR J FIDLER 1 MOUNTAIN GATE DR",
    "Suburb / Town": "FERNTREE GULLY VIC 315630/12/1996",
    "From Date": "",
    "To Date": "30/06/2027",
    "latitude": -37.884497,
    "longitude": 145.276118,
    "geocode_method": "Full Address"
  },
  {
    "laboratory": "35",
    "APA Number": "42",
    "ACC": "99",
    "ACC Name": "LAVERTY PATHOLOGY",
    "Address": "PATH RM FAIRFIELD DIST M/C L 1 147FAIRFIELD POLDING ST",
    "Suburb / Town": "HEIGHT NSW 2165",
    "From Date": "01/07/2008",
    "To Date": "30/06/2027",
    "latitude": -33.862607,
    "longitude": 150.956953,
    "geocode_method": "Full Address"
  },
  {
    "laboratory": "36",
    "APA Number": "42",
    "ACC": "102",
    "ACC Name": "LAVERTY PATHOLOGY QML PATHOLOGY",
    "Address": "SE 3 42-46 HARRISON ST",
    "Suburb / Town": "CARDIFF NSW 2285",
    "From Date": "01/07/2007",
    "To Date": "30/06/2027",
    "latitude": -32.940696,
    "longitude": 151.660441,
    "geocode_method": "Full Address"
  },
  {
    "laboratory": "37",
    "APA Number": "42",
    "ACC": "109",
    "ACC Name": "",
    "Address": "SPRING LAKE VILLAGE SH 7B 31 Address SPRINGFIELD LAKES BVD",
    "Suburb / Town": "SPRINGFIELD LAKE QLD 4300",
    "From Date": "",
    "To Date": "30/06/2027",
    "latitude": -27.668056,
    "longitude": 152.920244,
    "geocode_method": "Full Address"
  },
  {
    "laboratory": "38",
    "APA Number": "42",
    "ACC": "",
    "ACC Name": "LAVERTY PATHOLOGY LAVERTY PATHOLOGY",
    "Address": "HORNSBY HOUSE SE G4A 32-34 FLORENCE ST",
    "Suburb / Town": "HORNSBY NSW 2077",
    "From Date": "01/07/2008",
    "To Date": "30/06/2027",
    "latitude": -33.704385,
    "longitude": 151.101505,
    "geocode_method": "Full Address"
  },
  {
    "laboratory": "39",
    "APA Number": "42",
    "ACC": "112",
    "ACC Name": "DOREVITCH PATHOLOGY",
    "Address": "G 32 WALTER MORRIS CL",
    "Suburb / Town": "COFFS HARBOUR NSW 2450 SUNBURY VIC 3429",
    "From Date": "",
    "To Date": "30/06/2027",
    "latitude": -30.284822,
    "longitude": 153.129006,
    "geocode_method": "Full Address"
  },
  {
    "laboratory": "40",
    "APA Number": "42",
    "ACC": "117",
    "ACC Name": "",
    "Address": "EVANS STREET CLINIC 79-81 EVANS ST",
    "Suburb / Town": "",
    "From Date": "",
    "To Date": "",
    "latitude": null,
    "longitude": null,
    "geocode_method": "No result"
  },
  {
    "laboratory": "41",
    "APA Number": "42",
    "ACC": "121",
    "ACC Name": "QML PATHOLOGY",
    "Address": "TNCY 54 TAIGUM SQUARE 217 BEAMS RD",
    "Suburb / Town": "TAIGUM QLD 4018",
    "From Date": "01/07/2007",
    "To Date": "30/06/2027",
    "latitude": -27.350052,
    "longitude": 153.048042,
    "geocode_method": "Full Address"
  },
  {
    "laboratory": "42",
    "APA Number": "42",
    "ACC": "",
    "ACC Name": "DOREVITCH PATHOLOGY DOREVITCH PATHOLOGY",
    "Address": "PATH RM BRIGHT M/C 115 GAVAN ST",
    "Suburb / Town": "BRIGHT VIC 3741",
    "From Date": "10/02/1997",
    "To Date": "30/06/2027",
    "latitude": -36.726881,
    "longitude": 146.960825,
    "geocode_method": "Full Address"
  },
  {
    "laboratory": "43",
    "APA Number": "42",
    "ACC": "125",
    "ACC Name": "",
    "Address": "PATH RM CLIFTON HILL CLINIC 302 QUEENS PDE",
    "Suburb / Town": "CLIFTON HILL VIC 3068",
    "From Date": "",
    "To Date": "30/06/2027",
    "latitude": -37.788739,
    "longitude": 144.989757,
    "geocode_method": "Full Address"
  },
  {
    "laboratory": "44",
    "APA Number": "42",
    "ACC": "126",
    "ACC Name": "DOREVITCH PATHOLOGY DOREVITCH PATHOLOGY",
    "Address": "HEATHCOTE HOSPITAL MED CTR 39- 55 HOSPITAL ST",
    "Suburb / Town": "HEATHCOTE VIC 3523 FRANKSTON VIC 3199",
    "From Date": "01/07/2008",
    "To Date": "30/06/2027",
    "latitude": -36.925598,
    "longitude": 144.709712,
    "geocode_method": "Full Address"
  },
  {
    "laboratory": "45",
    "APA Number": "42",
    "ACC": "132",
    "ACC Name": "",
    "Address": "PATHOLOGY ROOM U 3 22 CLARENDON ST",
    "Suburb / Town": "",
    "From Date": "",
    "To Date": "",
    "latitude": null,
    "longitude": null,
    "geocode_method": "No result"
  },
  {
    "laboratory": "46",
    "APA Number": "42",
    "ACC": "142",
    "ACC Name": "DOREVITCH PATHOLOGY",
    "Address": "PATH RM GLADSTONE PARK SPEC 230 MICKLEHAM RD",
    "Suburb / Town": "TULLAMARINE VIC 3043",
    "From Date": "09/02/1998",
    "To Date": "30/06/2027",
    "latitude": -37.685144,
    "longitude": 144.883318,
    "geocode_method": "Full Address"
  },
  {
    "laboratory": "47",
    "APA Number": "42",
    "ACC": "",
    "ACC Name": "DOREVITCH PATHOLOGY DOREVITCH PATHOLOGY",
    "Address": "SE 1.6 & 2.1 THE GARDENS 470 WODONGA PL",
    "Suburb / Town": "ALBURY NSW 2640",
    "From Date": "01/07/2007",
    "To Date": "30/06/2027",
    "latitude": -36.081799,
    "longitude": 146.910858,
    "geocode_method": "Full Address"
  },
  {
    "laboratory": "48",
    "APA Number": "42",
    "ACC": "149",
    "ACC Name": "",
    "Address": "PATH SE MYHEALTH HAMPTON 3 SERVICE ST",
    "Suburb / Town": "HAMPTON VIC 3188",
    "From Date": "",
    "To Date": "30/06/2027",
    "latitude": -37.939037,
    "longitude": 145.003325,
    "geocode_method": "Full Address"
  },
  {
    "laboratory": "49",
    "APA Number": "42",
    "ACC": "151",
    "ACC Name": "DOREVITCH PATHOLOGY DOREVITCH PATHOLOGY",
    "Address": "PATH ROOM MOUNT BEAUTY M/C 2D TAWONGA CRES",
    "Suburb / Town": "MOUNT BEAUTY VIC 3699 SPRINGVALE VIC 3171",
    "From Date": "06/04/1999",
    "To Date": "30/06/2027",
    "latitude": -36.744056,
    "longitude": 147.170699,
    "geocode_method": "Full Address"
  },
  {
    "laboratory": "50",
    "APA Number": "42",
    "ACC": "161",
    "ACC Name": "",
    "Address": "12A ST JOHNS AVE",
    "Suburb / Town": "",
    "From Date": "",
    "To Date": "",
    "latitude": null,
    "longitude": null,
    "geocode_method": "No result"
  },
  {
    "laboratory": "51",
    "APA Number": "42",
    "ACC": "",
    "ACC Name": "DOREVITCH PATHOLOGY DOREVITCH PATHOLOGY",
    "Address": "ST ALBANS FAMILY DRS CLINIC 165- 167 ST ALBANS RD",
    "Suburb / Town": "ST ALBANS VIC 3021",
    "From Date": "01/07/2007",
    "To Date": "30/06/2027",
    "latitude": -37.759624,
    "longitude": 144.811847,
    "geocode_method": "Full Address"
  },
  {
    "laboratory": "52",
    "APA Number": "42",
    "ACC": "178",
    "ACC Name": "",
    "Address": "OUR LADY OF RIVERGUM MC 3 RIVERGUM DR",
    "Suburb / Town": "MILL PARK VIC 3082",
    "From Date": "",
    "To Date": "30/06/2027",
    "latitude": -37.663112,
    "longitude": 145.073057,
    "geocode_method": "Full Address"
  },
  {
    "laboratory": "53",
    "APA Number": "42",
    "ACC": "180",
    "ACC Name": "DOREVITCH PATHOLOGY DOREVITCH PATHOLOGY",
    "Address": "PTH RMS 1&2 NARRE WARREN CL U 1 103 PROSPECT HILL RD",
    "Suburb / Town": "NARRE WARREN VIC 3805 MOE VIC 3825",
    "From Date": "26/04/2001",
    "To Date": "30/06/2027",
    "latitude": -38.010838,
    "longitude": 145.309194,
    "geocode_method": "Full Address"
  },
  {
    "laboratory": "54",
    "APA Number": "42",
    "ACC": "181",
    "ACC Name": "",
    "Address": "73 ALBERT ST",
    "Suburb / Town": "",
    "From Date": "",
    "To Date": "",
    "latitude": null,
    "longitude": null,
    "geocode_method": "No result"
  },
  {
    "laboratory": "55",
    "APA Number": "42",
    "ACC": "",
    "ACC Name": "DOREVITCH PATHOLOGY DOREVITCH PATHOLOGY",
    "Address": "PATH RM MORNINGTON MED GRP 258 MAIN ST",
    "Suburb / Town": "MORNINGTON VIC 3931",
    "From Date": "28/05/2001",
    "To Date": "30/06/2027",
    "latitude": -38.22335,
    "longitude": 145.041218,
    "geocode_method": "Full Address"
  },
  {
    "laboratory": "56",
    "APA Number": "42",
    "ACC": "183",
    "ACC Name": "",
    "Address": "PATH RMS RINGWOOD PRIV HOSP Address 36-44 MT DANDENONG RD",
    "Suburb / Town": "RINGWOOD EAST VIC 3135",
    "From Date": "",
    "To Date": "30/06/2027",
    "latitude": -37.811408,
    "longitude": 145.24371,
    "geocode_method": "Full Address"
  },
  {
    "laboratory": "57",
    "APA Number": "42",
    "ACC": "",
    "ACC Name": "DOREVITCH PATHOLOGY DOREVITCH PATHOLOGY",
    "Address": "PATH SE STH EASTN PRIV HOSP G 313-329 PRINCES HWY",
    "Suburb / Town": "NOBLE PARK VIC 3174",
    "From Date": "02/07/2001",
    "To Date": "30/06/2027",
    "latitude": -37.96609,
    "longitude": 145.192738,
    "geocode_method": "Full Address"
  },
  {
    "laboratory": "58",
    "APA Number": "42",
    "ACC": "189",
    "ACC Name": "DOREVITCH PATHOLOGY",
    "Address": "BLACKBURN SOUTH RADIOLOGY 204BLACKBURN CANTERBURY RD",
    "Suburb / Town": "SOUTH VIC 3130 BRUNSWICK WEST VIC",
    "From Date": "",
    "To Date": "30/06/2027",
    "latitude": -37.83249,
    "longitude": 145.154178,
    "geocode_method": "Address+Suburb+State"
  },
  {
    "laboratory": "59",
    "APA Number": "42",
    "ACC": "190",
    "ACC Name": "",
    "Address": "PATH SE WEST BRUNSWICK CLN 9 MELVILLE RD",
    "Suburb / Town": "3055",
    "From Date": "",
    "To Date": "",
    "latitude": -37.76401,
    "longitude": 144.943925,
    "geocode_method": "Postcode"
  },
  {
    "laboratory": "60",
    "APA Number": "42",
    "ACC": "",
    "ACC Name": "LAVERTY PATHOLOGY DOREVITCH PATHOLOGY",
    "Address": "PATH RM LINDFIELD MED SE 6 12-18 TRYON RD",
    "Suburb / Town": "LINDFIELD NSW 2070",
    "From Date": "01/07/2008",
    "To Date": "30/06/2027",
    "latitude": -33.774762,
    "longitude": 151.170634,
    "geocode_method": "Full Address"
  },
  {
    "laboratory": "61",
    "APA Number": "42",
    "ACC": "194",
    "ACC Name": "",
    "Address": "PATH SE WHEELERS HILL CLC 847 FERNTREE GULLY RD",
    "Suburb / Town": "WHEELERS HILL VIC 3150",
    "From Date": "",
    "To Date": "30/06/2027",
    "latitude": -37.906223,
    "longitude": 145.186887,
    "geocode_method": "Full Address"
  },
  {
    "laboratory": "62",
    "APA Number": "42",
    "ACC": "198",
    "ACC Name": "DOREVITCH PATHOLOGY DOREVITCH PATHOLOGY",
    "Address": "HAMPTON PARK SPEC SUITES SE 7 36-40 STUART AVE",
    "Suburb / Town": "HAMPTON PARK VIC 3976 WENDOUREE VIC 3355",
    "From Date": "01/12/2001",
    "To Date": "30/06/2027",
    "latitude": -38.034853,
    "longitude": 145.264295,
    "geocode_method": "Full Address"
  },
  {
    "laboratory": "63",
    "APA Number": "42",
    "ACC": "206",
    "ACC Name": "",
    "Address": "BALLARAT DAY PROCEDURE CTR 1119 HOWITT ST",
    "Suburb / Town": "",
    "From Date": "",
    "To Date": "",
    "latitude": null,
    "longitude": null,
    "geocode_method": "No result"
  },
  {
    "laboratory": "64",
    "APA Number": "42",
    "ACC": "208",
    "ACC Name": "DOREVITCH PATHOLOGY DOREVITCH PATHOLOGY",
    "Address": "329 JASPER RD",
    "Suburb / Town": "ORMOND VIC 3204",
    "From Date": "25/02/2002",
    "To Date": "30/06/2027",
    "latitude": -37.905067,
    "longitude": 145.043805,
    "geocode_method": "Full Address"
  },
  {
    "laboratory": "65",
    "APA Number": "42",
    "ACC": "209",
    "ACC Name": "",
    "Address": "PATH RM BEECHWORTH SURGERY 39 CAMP ST",
    "Suburb / Town": "BEECHWORTH VIC 3747",
    "From Date": "",
    "To Date": "30/06/2027",
    "latitude": -36.358942,
    "longitude": 146.686079,
    "geocode_method": "Full Address"
  },
  {
    "laboratory": "66",
    "APA Number": "42",
    "ACC": "210",
    "ACC Name": "QML PATHOLOGY",
    "Address": "U 2 633 LOGAN RD",
    "Suburb / Town": "GREENSLOPES QLD 4120",
    "From Date": "01/07/2008",
    "To Date": "30/06/2027",
    "latitude": -27.508948,
    "longitude": 153.05167,
    "geocode_method": "Full Address"
  },
  {
    "laboratory": "67",
    "APA Number": "42",
    "ACC": "211",
    "ACC Name": "LAVERTY PATHOLOGY",
    "Address": "PATH RM 3 SPECIALIST M/C 11 KEMPSEY ST",
    "Suburb / Town": "BLACKTOWN NSW 2148",
    "From Date": "01/07/2008",
    "To Date": "30/06/2027",
    "latitude": -33.774324,
    "longitude": 150.91322,
    "geocode_method": "Full Address"
  },
  {
    "laboratory": "68",
    "APA Number": "42",
    "ACC": "",
    "ACC Name": "DOREVITCH PATHOLOGY DOREVITCH PATHOLOGY",
    "Address": "WESTERN DISTRICT HEALTH 20 FOSTER ST",
    "Suburb / Town": "HAMILTON VIC 3300",
    "From Date": "22/05/2002",
    "To Date": "30/06/2027",
    "latitude": -37.73753,
    "longitude": 142.03019,
    "geocode_method": "Full Address"
  },
  {
    "laboratory": "69",
    "APA Number": "42",
    "ACC": "214",
    "ACC Name": "",
    "Address": "PATH SE EASTERN GASTRO SPEC 205 UNION RD",
    "Suburb / Town": "SURREY HILLS VIC 3127",
    "From Date": "",
    "To Date": "30/06/2027",
    "latitude": -37.819936,
    "longitude": 145.098633,
    "geocode_method": "Full Address"
  },
  {
    "laboratory": "70",
    "APA Number": "42",
    "ACC": "231",
    "ACC Name": "QML PATHOLOGY QML PATHOLOGY",
    "Address": "CHERMSIDE SPECIALIST CTR 688 GYMPIE ST",
    "Suburb / Town": "CHERMSIDE QLD 4032 LOGANHOLME QLD 4129",
    "From Date": "01/10/2002",
    "To Date": "30/06/2027",
    "latitude": -35.120614,
    "longitude": 138.47918,
    "geocode_method": "Full Address"
  },
  {
    "laboratory": "71",
    "APA Number": "42",
    "ACC": "234",
    "ACC Name": "",
    "Address": "PATH RM SHAILER PARK MC SE 3/3A 70 BRYANTS RD",
    "Suburb / Town": "",
    "From Date": "",
    "To Date": "",
    "latitude": null,
    "longitude": null,
    "geocode_method": "No result"
  },
  {
    "laboratory": "72",
    "APA Number": "42",
    "ACC": "238",
    "ACC Name": "QML PATHOLOGY",
    "Address": "TRINITY HOUSE SE 3 39-41 MINCHINTON ST",
    "Suburb / Town": "CALOUNDRA QLD 4551",
    "From Date": "01/10/2002",
    "To Date": "30/06/2027",
    "latitude": -26.803353,
    "longitude": 153.131974,
    "geocode_method": "Full Address"
  },
  {
    "laboratory": "73",
    "APA Number": "42",
    "ACC": "",
    "ACC Name": "QML PATHOLOGY QML PATHOLOGY",
    "Address": "NOOSA DISTRICT HOSPITAL 50 MAPLE ST",
    "Suburb / Town": "COOROY QLD 4563",
    "From Date": "01/10/2002",
    "To Date": "30/06/2027",
    "latitude": -26.419945,
    "longitude": 152.90862,
    "geocode_method": "Full Address"
  },
  {
    "laboratory": "74",
    "APA Number": "42",
    "ACC": "244",
    "ACC Name": "QML PATHOLOGY",
    "Address": "SHOP 1 591 WYNNUM RD",
    "Suburb / Town": "MORNINGSIDE QLD 4170 KIPPA-RING QLD 4021",
    "From Date": "",
    "To Date": "30/06/2027",
    "latitude": -27.469108,
    "longitude": 153.071014,
    "geocode_method": "Full Address"
  },
  {
    "laboratory": "75",
    "APA Number": "42",
    "ACC": "247",
    "ACC Name": "QML PATHOLOGY",
    "Address": "PENINSULA SPECIALIST CENTRE 93 GEORGE ST Address",
    "Suburb / Town": "THE GAP QLD 4061",
    "From Date": "",
    "To Date": "",
    "latitude": -34.710565,
    "longitude": 150.008056,
    "geocode_method": "Full Address"
  },
  {
    "laboratory": "76",
    "APA Number": "42",
    "ACC": "248",
    "ACC Name": "",
    "Address": "SMARTCLINICS THE GAP SE 5 23 GLEN AFFRIC ST",
    "Suburb / Town": "",
    "From Date": "",
    "To Date": "",
    "latitude": null,
    "longitude": null,
    "geocode_method": "No result"
  },
  {
    "laboratory": "77",
    "APA Number": "42",
    "ACC": "253",
    "ACC Name": "QML PATHOLOGY",
    "Address": "STRATHPINE SPEC CTR U 13 32 DIXON ST",
    "Suburb / Town": "STRATHPINE QLD 4500",
    "From Date": "01/10/2002",
    "To Date": "30/06/2027",
    "latitude": -27.307524,
    "longitude": 152.994715,
    "geocode_method": "Full Address"
  },
  {
    "laboratory": "78",
    "APA Number": "42",
    "ACC": "",
    "ACC Name": "QML PATHOLOGY",
    "Address": "THE TERRACE 14-16 LIMESTONE ST",
    "Suburb / Town": "IPSWICH QLD 4305",
    "From Date": "01/10/2002",
    "To Date": "30/06/2027",
    "latitude": -27.615234,
    "longitude": 152.75942,
    "geocode_method": "Full Address"
  },
  {
    "laboratory": "79",
    "APA Number": "42",
    "ACC": "259",
    "ACC Name": "QML PATHOLOGY QML PATHOLOGY",
    "Address": "PATH ROOM CAIRNS M/C 120 MULGRAVE RD",
    "Suburb / Town": "CAIRNS QLD 4870 MAREEBA QLD 4880",
    "From Date": "01/10/2002",
    "To Date": "30/06/2027",
    "latitude": -16.925447,
    "longitude": 145.763121,
    "geocode_method": "Full Address"
  },
  {
    "laboratory": "80",
    "APA Number": "42",
    "ACC": "260",
    "ACC Name": "",
    "Address": "175 BYRNES ST",
    "Suburb / Town": "",
    "From Date": "",
    "To Date": "",
    "latitude": null,
    "longitude": null,
    "geocode_method": "No result"
  },
  {
    "laboratory": "81",
    "APA Number": "42",
    "ACC": "",
    "ACC Name": "QML PATHOLOGY QML PATHOLOGY",
    "Address": "PATH ROOM SE 1 15-17 RODERICK ST",
    "Suburb / Town": "IPSWICH QLD 4305",
    "From Date": "01/10/2002",
    "To Date": "30/06/2027",
    "latitude": -27.617447,
    "longitude": 152.759239,
    "geocode_method": "Full Address"
  },
  {
    "laboratory": "82",
    "APA Number": "42",
    "ACC": "264",
    "ACC Name": "",
    "Address": "PM RUNAWAY BAY DR SURG SHOP F5B 151 MORALA AVE",
    "Suburb / Town": "RUNAWAY BAY QLD 4216",
    "From Date": "",
    "To Date": "30/06/2027",
    "latitude": -27.913868,
    "longitude": 153.400564,
    "geocode_method": "Full Address"
  },
  {
    "laboratory": "83",
    "APA Number": "42",
    "ACC": "265",
    "ACC Name": "QML PATHOLOGY",
    "Address": "SUITES 8 & 9 120 BLOOMFIELD ST",
    "Suburb / Town": "CLEVELAND QLD 4163",
    "From Date": "01/10/2002",
    "To Date": "30/06/2027",
    "latitude": -27.52833,
    "longitude": 153.267305,
    "geocode_method": "Full Address"
  },
  {
    "laboratory": "84",
    "APA Number": "42",
    "ACC": "268",
    "ACC Name": "DOREVITCH PATHOLOGY",
    "Address": "PATH RM MT EVELYN MED SRGY 29 HEREFORD RD",
    "Suburb / Town": "MOUNT EVELYN VIC 3796",
    "From Date": "01/07/2008",
    "To Date": "30/06/2027",
    "latitude": -37.781968,
    "longitude": 145.381992,
    "geocode_method": "Full Address"
  },
  {
    "laboratory": "85",
    "APA Number": "42",
    "ACC": "",
    "ACC Name": "QML PATHOLOGY",
    "Address": "SHOP 10 109 OLD CLEVELAND RD",
    "Suburb / Town": "CAPALABA QLD 4157",
    "From Date": "01/10/2002",
    "To Date": "30/06/2027",
    "latitude": -27.521159,
    "longitude": 153.198171,
    "geocode_method": "Full Address"
  },
  {
    "laboratory": "86",
    "APA Number": "42",
    "ACC": "273",
    "ACC Name": "QML PATHOLOGY QML PATHOLOGY",
    "Address": "QML PATHOLOGY SHOP 2 876 OLD CLEVELAND RD",
    "Suburb / Town": "CARINA QLD 4152 CABOOLTURE QLD 4510",
    "From Date": "01/10/2002",
    "To Date": "30/06/2027",
    "latitude": -27.495009,
    "longitude": 153.090788,
    "geocode_method": "Full Address"
  },
  {
    "laboratory": "87",
    "APA Number": "42",
    "ACC": "275",
    "ACC Name": "",
    "Address": "SHOP 1 3 ANNIE ST",
    "Suburb / Town": "",
    "From Date": "",
    "To Date": "",
    "latitude": null,
    "longitude": null,
    "geocode_method": "No result"
  },
  {
    "laboratory": "88",
    "APA Number": "42",
    "ACC": "",
    "ACC Name": "QML PATHOLOGY QML PATHOLOGY",
    "Address": "PATH RM ASHGROVE SPEC M/C SE 4/4A 21-23 HARRY ST",
    "Suburb / Town": "ASHGROVE QLD 4060 406801/10/2002",
    "From Date": "01/10/2002",
    "To Date": "30/06/2027",
    "latitude": -27.444393,
    "longitude": 152.992838,
    "geocode_method": "Full Address"
  },
  {
    "laboratory": "89",
    "APA Number": "42",
    "ACC": "282",
    "ACC Name": "QML PATHOLOGY",
    "Address": "SE 4 DAY & NIGHT MED CTR 66 STATION RD",
    "Suburb / Town": "INDOOROOPILLY QLD EASTERN HEIGHTS QLD",
    "From Date": "",
    "To Date": "30/06/2027",
    "latitude": -27.502102,
    "longitude": 152.972577,
    "geocode_method": "Address+Suburb+State"
  },
  {
    "laboratory": "90",
    "APA Number": "42",
    "ACC": "283",
    "ACC Name": "",
    "Address": "PATH RM SE 2 92 GRANGE RD",
    "Suburb / Town": "4305",
    "From Date": "",
    "To Date": "",
    "latitude": -27.614603,
    "longitude": 152.760854,
    "geocode_method": "Postcode"
  },
  {
    "laboratory": "91",
    "APA Number": "42",
    "ACC": "",
    "ACC Name": "DOREVITCH PATHOLOGY QML PATHOLOGY",
    "Address": "KOOWEERUP REGIONAL HLTH SVC 215 ROSSITER RD",
    "Suburb / Town": "KOOWEERUP VIC 3981",
    "From Date": "01/07/2008",
    "To Date": "30/06/2027",
    "latitude": -38.201554,
    "longitude": 145.484952,
    "geocode_method": "Full Address"
  },
  {
    "laboratory": "92",
    "APA Number": "42",
    "ACC": "292",
    "ACC Name": "",
    "Address": "U 3 CAIRNS DAY SURGERY 156-160 GRAFTON ST",
    "Suburb / Town": "CAIRNS QLD 4870",
    "From Date": "",
    "To Date": "30/06/2027",
    "latitude": -16.918983,
    "longitude": 145.771964,
    "geocode_method": "Full Address"
  },
  {
    "laboratory": "93",
    "APA Number": "42",
    "ACC": "293",
    "ACC Name": "QML PATHOLOGY",
    "Address": "MEADOWBROOK SHOPPING VLG SHOP 5 261 LOGANLEA RD",
    "Suburb / Town": "MEADOWBROOK QLD 4131",
    "From Date": "01/10/2002",
    "To Date": "30/06/2027",
    "latitude": -27.684326,
    "longitude": 153.137569,
    "geocode_method": "Full Address"
  },
  {
    "laboratory": "94",
    "APA Number": "42",
    "ACC": "305",
    "ACC Name": "QML PATHOLOGY",
    "Address": "OXENFORD MED & PROF CTR SE 3 5 MICHIGAN DR",
    "Suburb / Town": "OXENFORD QLD 4210",
    "From Date": "01/10/2002",
    "To Date": "30/06/2027",
    "latitude": -27.900742,
    "longitude": 153.31271,
    "geocode_method": "Full Address"
  },
  {
    "laboratory": "95",
    "APA Number": "42",
    "ACC": "",
    "ACC Name": "QML PATHOLOGY LAVERTY PATHOLOGY",
    "Address": "11 WATKINS ST Address",
    "Suburb / Town": "TULLY QLD 4854 MIRANDA NSW 2228",
    "From Date": "01/10/2002",
    "To Date": "30/06/2027",
    "latitude": -17.933978,
    "longitude": 145.922602,
    "geocode_method": "Full Address"
  },
  {
    "laboratory": "96",
    "APA Number": "42",
    "ACC": "311",
    "ACC Name": "",
    "Address": "SE 3 G 20-24 GIBBS ST",
    "Suburb / Town": "",
    "From Date": "",
    "To Date": "",
    "latitude": null,
    "longitude": null,
    "geocode_method": "No result"
  },
  {
    "laboratory": "97",
    "APA Number": "42",
    "ACC": "",
    "ACC Name": "QML PATHOLOGY QML PATHOLOGY",
    "Address": "JINDALEE ALLSPORTS S/C SHOP 13 19 KOORINGAL DR",
    "Suburb / Town": "JINDALEE QLD 4074 401701/10/2002",
    "From Date": "01/10/2002",
    "To Date": "30/06/2027",
    "latitude": -27.531389,
    "longitude": 152.944323,
    "geocode_method": "Full Address"
  },
  {
    "laboratory": "98",
    "APA Number": "42",
    "ACC": "313",
    "ACC Name": "LAVERTY PATHOLOGY",
    "Address": "BRACKEN RIDGE PLAZA SHOP T5 250BRACKEN TELEGRAPH RD",
    "Suburb / Town": "RIDGE QLD MERRYLANDS NSW 2160",
    "From Date": "",
    "To Date": "30/06/2027",
    "latitude": -33.738904,
    "longitude": 151.145635,
    "geocode_method": "Full Address"
  },
  {
    "laboratory": "99",
    "APA Number": "42",
    "ACC": "316",
    "ACC Name": "",
    "Address": "PATH RMS 2&6 MERRYLANDS MC SE 2 181 MERRYLANDS RD",
    "Suburb / Town": "",
    "From Date": "",
    "To Date": "",
    "latitude": null,
    "longitude": null,
    "geocode_method": "No result"
  },
  {
    "laboratory": "100",
    "APA Number": "42",
    "ACC": "317",
    "ACC Name": "QML PATHOLOGY",
    "Address": "NORTH WEST SPECIALIST CNTR SE 8EVERTON 137A FLOCKTON ST",
    "Suburb / Town": "PARK QLD 4053",
    "From Date": "01/10/2002",
    "To Date": "30/06/2027",
    "latitude": -27.393555,
    "longitude": 152.992565,
    "geocode_method": "Full Address"
  },
  {
    "laboratory": "101",
    "APA Number": "42",
    "ACC": "",
    "ACC Name": "QML PATHOLOGY QML PATHOLOGY",
    "Address": "CORINDA PROFESSIONAL CNTR SE 2CORINDA 667 OXLEY RD",
    "Suburb / Town": "QLD 4075",
    "From Date": "01/10/2002",
    "To Date": "30/06/2027",
    "latitude": -27.53245,
    "longitude": 152.982976,
    "geocode_method": "Postcode"
  },
  {
    "laboratory": "102",
    "APA Number": "42",
    "ACC": "320",
    "ACC Name": "",
    "Address": "LEASE 48 KENMORE VILLAGE 9 BROOKFIELD RD",
    "Suburb / Town": "KENMORE QLD 4069",
    "From Date": "",
    "To Date": "30/06/2027",
    "latitude": -27.506059,
    "longitude": 152.938588,
    "geocode_method": "Full Address"
  },
  {
    "laboratory": "103",
    "APA Number": "42",
    "ACC": "325",
    "ACC Name": "QML PATHOLOGY QML PATHOLOGY",
    "Address": "ALEXANDRA HOUSE SE 14 G 201 WICKHAM TCE",
    "Suburb / Town": "SPRING HILL QLD 4000 GYMPIE QLD 4570",
    "From Date": "01/10/2002",
    "To Date": "30/06/2027",
    "latitude": -27.465132,
    "longitude": 153.023743,
    "geocode_method": "Full Address"
  },
  {
    "laboratory": "104",
    "APA Number": "42",
    "ACC": "326",
    "ACC Name": "",
    "Address": "COOLOOLA SPEC & DIAG CTR 74 CHANNON ST",
    "Suburb / Town": "",
    "From Date": "",
    "To Date": "",
    "latitude": null,
    "longitude": null,
    "geocode_method": "No result"
  },
  {
    "laboratory": "105",
    "APA Number": "42",
    "ACC": "328",
    "ACC Name": "QML PATHOLOGY",
    "Address": "ROSEWOOD PLAZA SHOP 1 18-20 JOHN ST",
    "Suburb / Town": "ROSEWOOD QLD 4340",
    "From Date": "01/07/2008",
    "To Date": "30/06/2027",
    "latitude": -27.641414,
    "longitude": 152.592937,
    "geocode_method": "Full Address"
  },
  {
    "laboratory": "106",
    "APA Number": "42",
    "ACC": "",
    "ACC Name": "QML PATHOLOGY QML PATHOLOGY",
    "Address": "THE MED DIAG CTR LOTS 8 & 9 7 NICKLIN WAY",
    "Suburb / Town": "MINYAMA QLD 4575",
    "From Date": "01/10/2002",
    "To Date": "30/06/2027",
    "latitude": -26.700214,
    "longitude": 153.12449,
    "geocode_method": "Full Address"
  },
  {
    "laboratory": "107",
    "APA Number": "42",
    "ACC": "332",
    "ACC Name": "QML PATHOLOGY",
    "Address": "SHOPS 1 2A & 2B 121 EGERTON ST",
    "Suburb / Town": "EMERALD QLD 4720 MAROOCHYDORE QLD",
    "From Date": "",
    "To Date": "30/06/2027",
    "latitude": -23.526361,
    "longitude": 148.163538,
    "geocode_method": "Address+Suburb+State"
  },
  {
    "laboratory": "108",
    "APA Number": "42",
    "ACC": "334",
    "ACC Name": "",
    "Address": "MAROOCHYDORE DIAG CNTR 148 HORTON PDE",
    "Suburb / Town": "4558",
    "From Date": "",
    "To Date": "",
    "latitude": -26.655877,
    "longitude": 153.059775,
    "geocode_method": "Postcode"
  },
  {
    "laboratory": "109",
    "APA Number": "42",
    "ACC": "",
    "ACC Name": "QML PATHOLOGY QML PATHOLOGY",
    "Address": "PORT VILLAGE MED CTR SH 17 11-17 MACROSSAN ST",
    "Suburb / Town": "PORT DOUGLAS QLD 4877",
    "From Date": "01/10/2002",
    "To Date": "30/06/2027",
    "latitude": -16.481956,
    "longitude": 145.462889,
    "geocode_method": "Full Address"
  },
  {
    "laboratory": "110",
    "APA Number": "42",
    "ACC": "338",
    "ACC Name": "",
    "Address": "LAIDLEY SHOPPING CENTRE SHOP 4LAIDLEY 132 PATRICK ST",
    "Suburb / Town": "QLD 4341",
    "From Date": "",
    "To Date": "30/06/2027",
    "latitude": -27.532421,
    "longitude": 152.468828,
    "geocode_method": "Postcode"
  },
  {
    "laboratory": "111",
    "APA Number": "42",
    "ACC": "340",
    "ACC Name": "LAVERTY PATHOLOGY QML PATHOLOGY",
    "Address": "PATH SE 1 EASTGARDENS MC SHOP 131 152 BUNNERONG RD",
    "Suburb / Town": "EASTGARDENS NSW 2036 NOOSAVILLE QLD 4566",
    "From Date": "01/07/2008",
    "To Date": "30/06/2027",
    "latitude": -33.944395,
    "longitude": 151.223743,
    "geocode_method": "Full Address"
  },
  {
    "laboratory": "112",
    "APA Number": "42",
    "ACC": "341",
    "ACC Name": "",
    "Address": "NOOSA PRIVATE HOSPITAL 111 GOODCHAP ST",
    "Suburb / Town": "",
    "From Date": "",
    "To Date": "",
    "latitude": null,
    "longitude": null,
    "geocode_method": "No result"
  },
  {
    "laboratory": "113",
    "APA Number": "42",
    "ACC": "342",
    "ACC Name": "QML PATHOLOGY",
    "Address": "TENANCY LG3 PACIFIC PVT CLC 119- 123 NERANG ST",
    "Suburb / Town": "SOUTHPORT QLD 4215",
    "From Date": "01/10/2002",
    "To Date": "30/06/2027",
    "latitude": -27.971008,
    "longitude": 153.40779,
    "geocode_method": "Full Address"
  },
  {
    "laboratory": "114",
    "APA Number": "42",
    "ACC": "",
    "ACC Name": "QML PATHOLOGY QML PATHOLOGY",
    "Address": "SHOP 1 107-111 MURWILLUMBAH ST Address",
    "Suburb / Town": "MURWILLUMBAH NSW 248401/10/2002 GOLDEN BEACH QLD 4551",
    "From Date": "",
    "To Date": "30/06/2027",
    "latitude": -28.326231,
    "longitude": 153.396302,
    "geocode_method": "Full Address"
  },
  {
    "laboratory": "115",
    "APA Number": "42",
    "ACC": "352",
    "ACC Name": "",
    "Address": "SHOP 4 46 LANDSBOROUGH PDE",
    "Suburb / Town": "",
    "From Date": "",
    "To Date": "",
    "latitude": null,
    "longitude": null,
    "geocode_method": "No result"
  },
  {
    "laboratory": "116",
    "APA Number": "42",
    "ACC": "",
    "ACC Name": "QML PATHOLOGY",
    "Address": "SHOP E21 VICTORIA POINT SC 505 CLEVELAND-REDLAND BAY R",
    "Suburb / Town": "VICTORIA POINT QLD 4165",
    "From Date": "01/10/2002",
    "To Date": "30/06/2027",
    "latitude": -27.618889,
    "longitude": 153.2211,
    "geocode_method": "Postcode"
  },
  {
    "laboratory": "117",
    "APA Number": "42",
    "ACC": "354",
    "ACC Name": "QML PATHOLOGY QML PATHOLOGY",
    "Address": "ST ANDREWS PLACE SE 279 G 33 NORTH ST",
    "Suburb / Town": "SPRING HILL QLD 4000 WISHART QLD 4122",
    "From Date": "01/10/2002",
    "To Date": "30/06/2027",
    "latitude": -27.461079,
    "longitude": 153.021821,
    "geocode_method": "Full Address"
  },
  {
    "laboratory": "118",
    "APA Number": "42",
    "ACC": "355",
    "ACC Name": "",
    "Address": "SHOP 9 280 NEWNHAM RD",
    "Suburb / Town": "",
    "From Date": "",
    "To Date": "",
    "latitude": null,
    "longitude": null,
    "geocode_method": "No result"
  },
  {
    "laboratory": "119",
    "APA Number": "42",
    "ACC": "",
    "ACC Name": "QML PATHOLOGY QML PATHOLOGY",
    "Address": "TENANCY B TOWER M/C 241 FORESTFOREST LAKE BVD",
    "Suburb / Town": "LAKE QLD 4078",
    "From Date": "01/10/2002",
    "To Date": "30/06/2027",
    "latitude": -27.626281,
    "longitude": 152.977256,
    "geocode_method": "Full Address"
  },
  {
    "laboratory": "120",
    "APA Number": "42",
    "ACC": "361",
    "ACC Name": "",
    "Address": "PATH RM CALAMVALE MED CNTR SHOP 7/7A G 51 KAMERUKA ST",
    "Suburb / Town": "CALAMVALE QLD 4116",
    "From Date": "",
    "To Date": "30/06/2027",
    "latitude": -27.624305,
    "longitude": 153.04875,
    "geocode_method": "Full Address"
  },
  {
    "laboratory": "121",
    "APA Number": "42",
    "ACC": "366",
    "ACC Name": "QML PATHOLOGY",
    "Address": "U 2 28 BOLSOVER ST",
    "Suburb / Town": "ROCKHAMPTON QLD 4700",
    "From Date": "01/10/2002",
    "To Date": "30/06/2027",
    "latitude": -23.371681,
    "longitude": 150.506491,
    "geocode_method": "Full Address"
  },
  {
    "laboratory": "122",
    "APA Number": "42",
    "ACC": "373",
    "ACC Name": "QML PATHOLOGY",
    "Address": "HOLY SPIRIT NORTHSIDE PH SE 4 627 RODE RD",
    "Suburb / Town": "CHERMSIDE QLD 4032",
    "From Date": "01/10/2002",
    "To Date": "30/06/2027",
    "latitude": -27.39103,
    "longitude": 153.023597,
    "geocode_method": "Full Address"
  },
  {
    "laboratory": "123",
    "APA Number": "42",
    "ACC": "",
    "ACC Name": "QML PATHOLOGY QML PATHOLOGY",
    "Address": "QML PATHOLOGY CLINIC SHOP 2A 11TIN DOLPHIN AVE",
    "Suburb / Town": "CAN BAY QLD 4580",
    "From Date": "01/10/2002",
    "To Date": "30/06/2027",
    "latitude": -25.916103,
    "longitude": 153.001593,
    "geocode_method": "Full Address"
  },
  {
    "laboratory": "124",
    "APA Number": "42",
    "ACC": "379",
    "ACC Name": "",
    "Address": "PATH RM GOULDING CENTRE SHOP 3 95 GRAFTON ST",
    "Suburb / Town": "WARWICK QLD 4370",
    "From Date": "",
    "To Date": "30/06/2027",
    "latitude": -28.21584,
    "longitude": 152.032118,
    "geocode_method": "Full Address"
  },
  {
    "laboratory": "125",
    "APA Number": "42",
    "ACC": "382",
    "ACC Name": "LAVERTY PATHOLOGY",
    "Address": "SE 3 130 PRINCES HWY",
    "Suburb / Town": "SYLVANIA NSW 2224",
    "From Date": "01/07/2008",
    "To Date": "30/06/2027",
    "latitude": -34.009124,
    "longitude": 151.102998,
    "geocode_method": "Full Address"
  },
  {
    "laboratory": "126",
    "APA Number": "42",
    "ACC": "393",
    "ACC Name": "DOREVITCH PATHOLOGY",
    "Address": "PATH RM PARK AVE MED CNTR 3-7 KINGDOM DR",
    "Suburb / Town": "CRANBOURNE VIC 3977",
    "From Date": "01/07/2008",
    "To Date": "30/06/2027",
    "latitude": -38.093192,
    "longitude": 145.293377,
    "geocode_method": "Full Address"
  },
  {
    "laboratory": "127",
    "APA Number": "42",
    "ACC": "",
    "ACC Name": "QML PATHOLOGY",
    "Address": "30 OWEN ST",
    "Suburb / Town": "INNISFAIL QLD 4860",
    "From Date": "21/10/2002",
    "To Date": "30/06/2027",
    "latitude": -17.524034,
    "longitude": 146.029131,
    "geocode_method": "Full Address"
  },
  {
    "laboratory": "128",
    "APA Number": "42",
    "ACC": "398",
    "ACC Name": "QML PATHOLOGY",
    "Address": "PLAINS JUNCTION SHOP CTR U 2 24- 48 BROWNS PLAINS RD",
    "Suburb / Town": "BROWNS PLAINS QLD 411804/11/2002",
    "From Date": "",
    "To Date": "30/06/2027",
    "latitude": -27.659599,
    "longitude": 153.040836,
    "geocode_method": "Full Address"
  },
  {
    "laboratory": "129",
    "APA Number": "42",
    "ACC": "400",
    "ACC Name": "QML PATHOLOGY",
    "Address": "PATH RM AYR MEDICAL CENTRE 2A- 10A CHIPPENDALE ST",
    "Suburb / Town": "AYR QLD 4807",
    "From Date": "09/12/2002",
    "To Date": "30/06/2027",
    "latitude": -19.564922,
    "longitude": 147.409359,
    "geocode_method": "Full Address"
  },
  {
    "laboratory": "130",
    "APA Number": "42",
    "ACC": "",
    "ACC Name": "DOREVITCH PATHOLOGY QML PATHOLOGY",
    "Address": "PATH SE DIGESTIVE HLTH CTR 90 DAVID ST",
    "Suburb / Town": "DANDENONG VIC 3175",
    "From Date": "16/12/2002",
    "To Date": "30/06/2027",
    "latitude": -37.977388,
    "longitude": 145.21663,
    "geocode_method": "Full Address"
  },
  {
    "laboratory": "131",
    "APA Number": "42",
    "ACC": "406",
    "ACC Name": "LAVERTY PATHOLOGY",
    "Address": "QML TENANCY SE 2 99 TAMAR ST 118-COOTAMUNDRA",
    "Suburb / Town": "BALLINA NSW 2478 NSW 2590",
    "From Date": "",
    "To Date": "30/06/2027",
    "latitude": -28.867963,
    "longitude": 153.558359,
    "geocode_method": "Full Address"
  },
  {
    "laboratory": "132",
    "APA Number": "42",
    "ACC": "408",
    "ACC Name": "",
    "Address": "PATH SE 2 COOTAMUNDRA PHC 132 MACKAY ST",
    "Suburb / Town": "",
    "From Date": "",
    "To Date": "",
    "latitude": null,
    "longitude": null,
    "geocode_method": "No result"
  },
  {
    "laboratory": "133",
    "APA Number": "42",
    "ACC": "",
    "ACC Name": "QML PATHOLOGY QML PATHOLOGY",
    "Address": "PATH RM MIAMI FAMILY M/C 1922 GOLD COAST HWY",
    "Suburb / Town": "MIAMI QLD 4220",
    "From Date": "31/03/2003",
    "To Date": "30/06/2027",
    "latitude": -28.075175,
    "longitude": 153.44467,
    "geocode_method": "Full Address"
  },
  {
    "laboratory": "134",
    "APA Number": "42",
    "ACC": "416",
    "ACC Name": "DOREVITCH PATHOLOGY",
    "Address": "SHOP 4 1300 SAMFORD RD",
    "Suburb / Town": "FERNY GROVE QLD 4055 MORNINGTON VIC 3931",
    "From Date": "",
    "To Date": "30/06/2027",
    "latitude": -27.403013,
    "longitude": 152.937684,
    "geocode_method": "Full Address"
  },
  {
    "laboratory": "135",
    "APA Number": "42",
    "ACC": "418",
    "ACC Name": "",
    "Address": "BELEURA PRIV HOSPITAL SE 9 G Address 925 NEPEAN HWY",
    "Suburb / Town": "",
    "From Date": "",
    "To Date": "",
    "latitude": null,
    "longitude": null,
    "geocode_method": "No result"
  },
  {
    "laboratory": "136",
    "APA Number": "42",
    "ACC": "",
    "ACC Name": "LAVERTY PATHOLOGY LAVERTY PATHOLOGY",
    "Address": "PATH SE SURRY HILLS MED CTR 569-SURRY 573 CROWN ST",
    "Suburb / Town": "HILLS NSW 2010",
    "From Date": "01/07/2008",
    "To Date": "30/06/2027",
    "latitude": -33.891,
    "longitude": 151.212705,
    "geocode_method": "Full Address"
  },
  {
    "laboratory": "137",
    "APA Number": "42",
    "ACC": "422",
    "ACC Name": "LAVERTY PATHOLOGY",
    "Address": "216 RUSDEN ST",
    "Suburb / Town": "ARMIDALE NSW 2350 BANKSTOWN NSW 2200",
    "From Date": "",
    "To Date": "30/06/2027",
    "latitude": -30.512741,
    "longitude": 151.657609,
    "geocode_method": "Full Address"
  },
  {
    "laboratory": "138",
    "APA Number": "42",
    "ACC": "424",
    "ACC Name": "",
    "Address": "SE 3 52 KITCHENER PDE",
    "Suburb / Town": "",
    "From Date": "",
    "To Date": "",
    "latitude": null,
    "longitude": null,
    "geocode_method": "No result"
  },
  {
    "laboratory": "139",
    "APA Number": "42",
    "ACC": "",
    "ACC Name": "LAVERTY PATHOLOGY LAVERTY PATHOLOGY",
    "Address": "ULLADULLA PLAZA SE B 22-24 PACIFIC ST",
    "Suburb / Town": "BATEMANS BAY NSW 2536",
    "From Date": "18/08/2003",
    "To Date": "30/06/2027",
    "latitude": -35.713908,
    "longitude": 150.181201,
    "geocode_method": "Full Address"
  },
  {
    "laboratory": "140",
    "APA Number": "42",
    "ACC": "428",
    "ACC Name": "QML PATHOLOGY",
    "Address": "500 PACIFIC HWY",
    "Suburb / Town": "BELMONT NSW 2280 SUNNYBANK QLD 4109",
    "From Date": "",
    "To Date": "30/06/2027",
    "latitude": -33.032862,
    "longitude": 151.660499,
    "geocode_method": "Full Address"
  },
  {
    "laboratory": "141",
    "APA Number": "42",
    "ACC": "434",
    "ACC Name": "",
    "Address": "MCCULLOUGH CENTRE SE 21 245 MCCULLOUGH ST",
    "Suburb / Town": "",
    "From Date": "",
    "To Date": "",
    "latitude": null,
    "longitude": null,
    "geocode_method": "No result"
  },
  {
    "laboratory": "142",
    "APA Number": "42",
    "ACC": "441",
    "ACC Name": "QML PATHOLOGY",
    "Address": "PATH RM CHILDERS DRS SURG 3 ASHBY LANE",
    "Suburb / Town": "CHILDERS QLD 4660",
    "From Date": "01/07/2008",
    "To Date": "30/06/2027",
    "latitude": -25.237043,
    "longitude": 152.279811,
    "geocode_method": "Full Address"
  },
  {
    "laboratory": "143",
    "APA Number": "42",
    "ACC": "",
    "ACC Name": "LAVERTY PATHOLOGY WESTERN DIAGNOSTIC PATH",
    "Address": "PATH LAB KAREENA PRIV HOSP L 3 &CARINGBAH G 86 KAREENA RD",
    "Suburb / Town": "NSW 2229",
    "From Date": "18/08/2003",
    "To Date": "30/06/2027",
    "latitude": -34.01912,
    "longitude": 151.121913,
    "geocode_method": "Postcode"
  },
  {
    "laboratory": "144",
    "APA Number": "42",
    "ACC": "443",
    "ACC Name": "",
    "Address": "PATH RM CURRAMBINE F/P U 2 4 HOBSONS GTE",
    "Suburb / Town": "CURRAMBINE WA 6028",
    "From Date": "",
    "To Date": "30/06/2027",
    "latitude": -31.739251,
    "longitude": 115.738112,
    "geocode_method": "Full Address"
  },
  {
    "laboratory": "145",
    "APA Number": "42",
    "ACC": "445",
    "ACC Name": "LAVERTY PATHOLOGY LAVERTY PATHOLOGY",
    "Address": "PATHOLOGY RM GROUND FLOOR U 2 28 SMITH ST",
    "Suburb / Town": "CHARLESTOWN NSW 2290 ST MARYS NSW 2760",
    "From Date": "18/08/2003",
    "To Date": "30/06/2027",
    "latitude": -32.96393,
    "longitude": 151.697507,
    "geocode_method": "Full Address"
  },
  {
    "laboratory": "146",
    "APA Number": "42",
    "ACC": "447",
    "ACC Name": "",
    "Address": "PTH SE 1&2 ASTLEY MC SH 5-8 358- 370 GREAT WESTERN HWY",
    "Suburb / Town": "",
    "From Date": "",
    "To Date": "",
    "latitude": null,
    "longitude": null,
    "geocode_method": "No result"
  },
  {
    "laboratory": "147",
    "APA Number": "42",
    "ACC": "450",
    "ACC Name": "LAVERTY PATHOLOGY",
    "Address": "PATHOLOGY ROOM SHOP 3 92 MAJORS BAY RD",
    "Suburb / Town": "CONCORD NSW 2137",
    "From Date": "18/08/2003",
    "To Date": "30/06/2027",
    "latitude": -33.856204,
    "longitude": 151.102867,
    "geocode_method": "Full Address"
  },
  {
    "laboratory": "148",
    "APA Number": "42",
    "ACC": "",
    "ACC Name": "LAVERTY PATHOLOGY LAVERTY PATHOLOGY",
    "Address": "PATH RM DAPTO MED/FAM PRAC G 21 BONG BONG RD",
    "Suburb / Town": "DAPTO NSW 2530",
    "From Date": "18/08/2003",
    "To Date": "30/06/2027",
    "latitude": -34.494248,
    "longitude": 150.792845,
    "geocode_method": "Full Address"
  },
  {
    "laboratory": "149",
    "APA Number": "42",
    "ACC": "457",
    "ACC Name": "LAVERTY PATHOLOGY",
    "Address": "SE 1 29 WALLACE ST",
    "Suburb / Town": "MACKSVILLE NSW 2447 MAROUBRA NSW 2035",
    "From Date": "",
    "To Date": "30/06/2027",
    "latitude": -30.70753,
    "longitude": 152.918489,
    "geocode_method": "Full Address"
  },
  {
    "laboratory": "150",
    "APA Number": "42",
    "ACC": "459",
    "ACC Name": "",
    "Address": "SHOP 2 805-813 ANZAC PDE",
    "Suburb / Town": "",
    "From Date": "",
    "To Date": "",
    "latitude": null,
    "longitude": null,
    "geocode_method": "No result"
  },
  {
    "laboratory": "151",
    "APA Number": "42",
    "ACC": "",
    "ACC Name": "LAVERTY PATHOLOGY LAVERTY PATHOLOGY",
    "Address": "PATH ROOM 1 & 2 SHOP 1 332-334 MARICKVILLE RD",
    "Suburb / Town": "MARRICKVILLE NSW 2204",
    "From Date": "18/08/2003",
    "To Date": "30/06/2027",
    "latitude": -33.910204,
    "longitude": 151.154678,
    "geocode_method": "Full Address"
  },
  {
    "laboratory": "152",
    "APA Number": "42",
    "ACC": "461",
    "ACC Name": "LAVERTY PATHOLOGY",
    "Address": "SE B 280 MAITLAND RD",
    "Suburb / Town": "MAYFIELD NSW 2304 MENAI NSW 2234",
    "From Date": "",
    "To Date": "30/06/2027",
    "latitude": -32.897634,
    "longitude": 151.736434,
    "geocode_method": "Full Address"
  },
  {
    "laboratory": "153",
    "APA Number": "42",
    "ACC": "462",
    "ACC Name": "",
    "Address": "PATH ROOM SE 3A 62-70 ALLISON CRES",
    "Suburb / Town": "",
    "From Date": "",
    "To Date": "",
    "latitude": null,
    "longitude": null,
    "geocode_method": "No result"
  },
  {
    "laboratory": "154",
    "APA Number": "42",
    "ACC": "466",
    "ACC Name": "LAVERTY PATHOLOGY LAVERTY PATHOLOGY",
    "Address": "PATHOLOGY SUITE 1 64 BROOK ST",
    "Suburb / Town": "MUSWELLBROOK NSW 2333",
    "From Date": "18/08/2003",
    "To Date": "30/06/2027",
    "latitude": -32.263121,
    "longitude": 150.890094,
    "geocode_method": "Full Address"
  },
  {
    "laboratory": "155",
    "APA Number": "42",
    "ACC": "468",
    "ACC Name": "",
    "Address": "PEACHTREE CENTRE U 6 & 7 1 KENT Address ST",
    "Suburb / Town": "NAMBUCCA HEADS NSW 2448",
    "From Date": "",
    "To Date": "30/06/2027",
    "latitude": -30.641971,
    "longitude": 153.00327,
    "geocode_method": "Full Address"
  },
  {
    "laboratory": "156",
    "APA Number": "42",
    "ACC": "",
    "ACC Name": "LAVERTY PATHOLOGY LAVERTY PATHOLOGY",
    "Address": "STANDISH MEDICAL CENTRE SE 4 33NOWRA BERRY ST",
    "Suburb / Town": "NSW 2541",
    "From Date": "18/08/2003",
    "To Date": "30/06/2027",
    "latitude": -34.875018,
    "longitude": 150.60162,
    "geocode_method": "Postcode"
  },
  {
    "laboratory": "157",
    "APA Number": "42",
    "ACC": "479",
    "ACC Name": "LAVERTY PATHOLOGY",
    "Address": "THE HERMITAGE MED CTR SE 9 72- 80 LAKE RD",
    "Suburb / Town": "PORT MACQUARIE NSW 2444 QUIRINDI NSW 2343",
    "From Date": "",
    "To Date": "30/06/2027",
    "latitude": -31.447575,
    "longitude": 152.896391,
    "geocode_method": "Full Address"
  },
  {
    "laboratory": "158",
    "APA Number": "42",
    "ACC": "481",
    "ACC Name": "",
    "Address": "177 GEORGE ST",
    "Suburb / Town": "",
    "From Date": "",
    "To Date": "",
    "latitude": null,
    "longitude": null,
    "geocode_method": "No result"
  },
  {
    "laboratory": "159",
    "APA Number": "42",
    "ACC": "",
    "ACC Name": "LAVERTY PATHOLOGY",
    "Address": "RAMSGATE PLAZE SUITE 5 191-203 RAMSGATE RD",
    "Suburb / Town": "RAMSGATE BEACH NSW 2217",
    "From Date": "18/08/2003",
    "To Date": "30/06/2027",
    "latitude": -33.9858,
    "longitude": 151.144503,
    "geocode_method": "Full Address"
  },
  {
    "laboratory": "160",
    "APA Number": "42",
    "ACC": "485",
    "ACC Name": "LAVERTY PATHOLOGY LAVERTY PATHOLOGY",
    "Address": "ROOTY HILL MED&DEN CTR U 1 G 31 ROOTY HILL RD N",
    "Suburb / Town": "ROOTY HILL NSW 2766 RIVERWOOD NSW 2210",
    "From Date": "01/07/2008",
    "To Date": "30/06/2027",
    "latitude": -33.770702,
    "longitude": 150.842814,
    "geocode_method": "Full Address"
  },
  {
    "laboratory": "161",
    "APA Number": "42",
    "ACC": "487",
    "ACC Name": "",
    "Address": "289 BELMORE RD",
    "Suburb / Town": "",
    "From Date": "",
    "To Date": "",
    "latitude": null,
    "longitude": null,
    "geocode_method": "No result"
  },
  {
    "laboratory": "162",
    "APA Number": "42",
    "ACC": "",
    "ACC Name": "LAVERTY PATHOLOGY LAVERTY PATHOLOGY",
    "Address": "PROVINCIAL MC ST CLAIR SC SHOP 21 155 BENNETT RD",
    "Suburb / Town": "ST CLAIR NSW 2759",
    "From Date": "18/08/2003",
    "To Date": "30/06/2027",
    "latitude": -33.794943,
    "longitude": 150.788991,
    "geocode_method": "Full Address"
  },
  {
    "laboratory": "163",
    "APA Number": "42",
    "ACC": "497",
    "ACC Name": "",
    "Address": "PATH RM 1 SCHWARZ F/P 37 HILDER ST",
    "Suburb / Town": "ELDERSLIE NSW 2570",
    "From Date": "",
    "To Date": "30/06/2027",
    "latitude": -34.052638,
    "longitude": 150.716774,
    "geocode_method": "Full Address"
  },
  {
    "laboratory": "164",
    "APA Number": "42",
    "ACC": "500",
    "ACC Name": "LAVERTY PATHOLOGY QML PATHOLOGY",
    "Address": "CAPE HAWK COMM HOSP SE 1 5A SOUTH ST",
    "Suburb / Town": "FORSTER NSW 2428 AUCHENFLOWER QLD 406601/07/2008",
    "From Date": "18/08/2003",
    "To Date": "30/06/2027",
    "latitude": -32.188402,
    "longitude": 152.513729,
    "geocode_method": "Full Address"
  },
  {
    "laboratory": "165",
    "APA Number": "42",
    "ACC": "502",
    "ACC Name": "",
    "Address": "AION HLTH CONS RMS 3&4&5 L5 SE 90 30 CHASELY ST",
    "Suburb / Town": "",
    "From Date": "",
    "To Date": "",
    "latitude": null,
    "longitude": null,
    "geocode_method": "No result"
  },
  {
    "laboratory": "166",
    "APA Number": "42",
    "ACC": "",
    "ACC Name": "LAVERTY PATHOLOGY",
    "Address": "3 WHITE ST",
    "Suburb / Town": "JANNALI NSW 2226",
    "From Date": "18/08/2003",
    "To Date": "30/06/2027",
    "latitude": -34.01696,
    "longitude": 151.066142,
    "geocode_method": "Full Address"
  },
  {
    "laboratory": "167",
    "APA Number": "42",
    "ACC": "512",
    "ACC Name": "LAVERTY PATHOLOGY",
    "Address": "SHOP 1 60 PENSHURST ST",
    "Suburb / Town": "PENSHURST NSW 2222",
    "From Date": "01/07/2008",
    "To Date": "30/06/2027",
    "latitude": -33.964335,
    "longitude": 151.088152,
    "geocode_method": "Full Address"
  },
  {
    "laboratory": "168",
    "APA Number": "42",
    "ACC": "515",
    "ACC Name": "LAVERTY PATHOLOGY",
    "Address": "KINCUMBER CENTRE SHOP 10 39 AVOCA DR",
    "Suburb / Town": "KINCUMBER NSW 2251",
    "From Date": "18/08/2003",
    "To Date": "30/06/2027",
    "latitude": -33.473463,
    "longitude": 151.437797,
    "geocode_method": "Full Address"
  },
  {
    "laboratory": "169",
    "APA Number": "42",
    "ACC": "",
    "ACC Name": "LAVERTY PATHOLOGY",
    "Address": "SHOP 4 95 ANITA AVE",
    "Suburb / Town": "LAKE MUNMORAH NSW 2259",
    "From Date": "18/08/2003",
    "To Date": "30/06/2027",
    "latitude": -33.19393,
    "longitude": 151.570635,
    "geocode_method": "Full Address"
  },
  {
    "laboratory": "170",
    "APA Number": "42",
    "ACC": "522",
    "ACC Name": "LAVERTY PATHOLOGY LAVERTY PATHOLOGY",
    "Address": "PATH RM BIGGE ST MED CTR SE 11 42-44 BIGGE ST",
    "Suburb / Town": "LIVERPOOL NSW 2170 STOCKTON NSW 2295",
    "From Date": "18/08/2003",
    "To Date": "30/06/2027",
    "latitude": -33.918075,
    "longitude": 150.92818,
    "geocode_method": "Full Address"
  },
  {
    "laboratory": "171",
    "APA Number": "42",
    "ACC": "523",
    "ACC Name": "",
    "Address": "PATH RM 55A MITCHELL ST",
    "Suburb / Town": "",
    "From Date": "",
    "To Date": "",
    "latitude": null,
    "longitude": null,
    "geocode_method": "No result"
  },
  {
    "laboratory": "172",
    "APA Number": "42",
    "ACC": "",
    "ACC Name": "LAVERTY PATHOLOGY LAVERTY PATHOLOGY",
    "Address": "PATHOLOGY ROOM SE 2 33-35 BELMONT ST",
    "Suburb / Town": "SUTHERLAND NSW 2232",
    "From Date": "18/08/2003",
    "To Date": "30/06/2027",
    "latitude": -34.030549,
    "longitude": 151.061418,
    "geocode_method": "Full Address"
  },
  {
    "laboratory": "173",
    "APA Number": "42",
    "ACC": "528",
    "ACC Name": "LAVERTY PATHOLOGY",
    "Address": "128 MARIUS ST",
    "Suburb / Town": "TAMWORTH NSW 2340 TAMWORTH NSW 2340",
    "From Date": "",
    "To Date": "30/06/2027",
    "latitude": -31.084971,
    "longitude": 150.928283,
    "geocode_method": "Full Address"
  },
  {
    "laboratory": "174",
    "APA Number": "42",
    "ACC": "529",
    "ACC Name": "",
    "Address": "TAMWELL MEDICAL CENTRE SE O 121 JOHNSTON ST",
    "Suburb / Town": "",
    "From Date": "",
    "To Date": "",
    "latitude": null,
    "longitude": null,
    "geocode_method": "No result"
  },
  {
    "laboratory": "175",
    "APA Number": "42",
    "ACC": "530",
    "ACC Name": "LAVERTY PATHOLOGY DOREVITCH PATHOLOGY",
    "Address": "67 WYNTER ST Address",
    "Suburb / Town": "TAREE NSW 2430 WERRIBEE VIC 3030",
    "From Date": "18/08/2003",
    "To Date": "30/06/2027",
    "latitude": -31.909998,
    "longitude": 152.45774,
    "geocode_method": "Full Address"
  },
  {
    "laboratory": "176",
    "APA Number": "42",
    "ACC": "542",
    "ACC Name": "",
    "Address": "PATH RMS WYNDHAM HLTH CARE U 1-2 229 HEATHS RD",
    "Suburb / Town": "",
    "From Date": "",
    "To Date": "",
    "latitude": null,
    "longitude": null,
    "geocode_method": "No result"
  },
  {
    "laboratory": "177",
    "APA Number": "42",
    "ACC": "543",
    "ACC Name": "DOREVITCH PATHOLOGY",
    "Address": "PATH RM BEAUMARIS M/C 31A NORTH CONCOURSE",
    "Suburb / Town": "BEAUMARIS VIC 3193",
    "From Date": "01/07/2008",
    "To Date": "30/06/2027",
    "latitude": -37.985353,
    "longitude": 145.034686,
    "geocode_method": "Full Address"
  },
  {
    "laboratory": "178",
    "APA Number": "42",
    "ACC": "",
    "ACC Name": "LAVERTY PATHOLOGY",
    "Address": "PATH RM GOOD LIFE PHARMACY 491SOUTH GEORGE ST",
    "Suburb / Town": "WINDSOR NSW 2756",
    "From Date": "18/08/2003",
    "To Date": "30/06/2027",
    "latitude": -33.620624,
    "longitude": 150.803934,
    "geocode_method": "Full Address"
  },
  {
    "laboratory": "179",
    "APA Number": "42",
    "ACC": "546",
    "ACC Name": "LAVERTY PATHOLOGY",
    "Address": "SHOP 3 20 ISABELLA ST",
    "Suburb / Town": "WINGHAM NSW 2429",
    "From Date": "18/08/2003",
    "To Date": "30/06/2027",
    "latitude": -31.869029,
    "longitude": 152.372437,
    "geocode_method": "Full Address"
  },
  {
    "laboratory": "180",
    "APA Number": "42",
    "ACC": "547",
    "ACC Name": "LAVERTY PATHOLOGY",
    "Address": "PATH RM CORINA CHAMBERS U 13 36-38 CORINNA ST",
    "Suburb / Town": "PHILLIP ACT 2606",
    "From Date": "18/08/2003",
    "To Date": "30/06/2027",
    "latitude": -35.346166,
    "longitude": 149.08426,
    "geocode_method": "Full Address"
  },
  {
    "laboratory": "181",
    "APA Number": "42",
    "ACC": "",
    "ACC Name": "LAVERTY PATHOLOGY LAVERTY PATHOLOGY",
    "Address": "PATH SE ATHERFIELD MED CTR 65 LEAD ST",
    "Suburb / Town": "YASS NSW 2582",
    "From Date": "18/08/2003",
    "To Date": "30/06/2027",
    "latitude": -34.843149,
    "longitude": 148.913192,
    "geocode_method": "Full Address"
  },
  {
    "laboratory": "182",
    "APA Number": "42",
    "ACC": "553",
    "ACC Name": "",
    "Address": "ROOMS 1&2 BUILDING A&B G 60 WATERLOO RD",
    "Suburb / Town": "NORTH RYDE NSW 2113",
    "From Date": "",
    "To Date": "30/06/2027",
    "latitude": -33.782056,
    "longitude": 151.123096,
    "geocode_method": "Full Address"
  },
  {
    "laboratory": "183",
    "APA Number": "42",
    "ACC": "555",
    "ACC Name": "LAVERTY PATHOLOGY LAVERTY PATHOLOGY",
    "Address": "OTP HOUSE SE 1 G 10 BRADFORD CLKOTARA",
    "Suburb / Town": "NSW 2289 DULWICH HILL NSW 2203",
    "From Date": "18/08/2003",
    "To Date": "30/06/2027",
    "latitude": -33.903306,
    "longitude": 151.14242,
    "geocode_method": "Postcode"
  },
  {
    "laboratory": "184",
    "APA Number": "42",
    "ACC": "556",
    "ACC Name": "",
    "Address": "PTH RM 5 HOLY FAM MC SH 2 529 NEW CANTERBURY RD",
    "Suburb / Town": "",
    "From Date": "",
    "To Date": "",
    "latitude": null,
    "longitude": null,
    "geocode_method": "No result"
  },
  {
    "laboratory": "185",
    "APA Number": "42",
    "ACC": "560",
    "ACC Name": "QML PATHOLOGY",
    "Address": "KINGSCLIFF SHOPPING VILLAGE SHOP 14 24 PEARL ST",
    "Suburb / Town": "KINGSCLIFF NSW 2487",
    "From Date": "01/09/2003",
    "To Date": "30/06/2027",
    "latitude": -28.256008,
    "longitude": 153.576061,
    "geocode_method": "Full Address"
  },
  {
    "laboratory": "186",
    "APA Number": "42",
    "ACC": "",
    "ACC Name": "DOREVITCH PATHOLOGY LAVERTY PATHOLOGY",
    "Address": "PATH RM HILLCREST HLTH CARE 50- 52 BAMBURGH ST",
    "Suburb / Town": "JACANA VIC 3047",
    "From Date": "01/07/2008",
    "To Date": "30/06/2027",
    "latitude": -37.684454,
    "longitude": 144.914152,
    "geocode_method": "Full Address"
  },
  {
    "laboratory": "187",
    "APA Number": "42",
    "ACC": "570",
    "ACC Name": "",
    "Address": "MONGOMERY DIAGNOSTIC CTR G SEKOGARAH A 50 MONTGOMERY ST",
    "Suburb / Town": "NSW 2217",
    "From Date": "",
    "To Date": "30/06/2027",
    "latitude": -33.975979,
    "longitude": 151.132741,
    "geocode_method": "Postcode"
  },
  {
    "laboratory": "188",
    "APA Number": "42",
    "ACC": "571",
    "ACC Name": "QML PATHOLOGY DOREVITCH PATHOLOGY",
    "Address": "PATHOLOGY ROOM SHOP 1 43 FITZROY ST",
    "Suburb / Town": "NANANGO QLD 4615 ELTHAM VIC 3095",
    "From Date": "13/10/2003",
    "To Date": "30/06/2027",
    "latitude": -26.670489,
    "longitude": 151.999943,
    "geocode_method": "Full Address"
  },
  {
    "laboratory": "189",
    "APA Number": "42",
    "ACC": "572",
    "ACC Name": "",
    "Address": "PATH RM ELTHAM CENTRAL M/C 9 LUCK ST",
    "Suburb / Town": "",
    "From Date": "",
    "To Date": "",
    "latitude": null,
    "longitude": null,
    "geocode_method": "No result"
  },
  {
    "laboratory": "190",
    "APA Number": "42",
    "ACC": "587",
    "ACC Name": "QML PATHOLOGY",
    "Address": "ASPLEY FOUNTAIN SHOP CTR SHOP 4 1344 GYMPIE RD",
    "Suburb / Town": "ASPLEY QLD 4034",
    "From Date": "01/07/2008",
    "To Date": "30/06/2027",
    "latitude": -27.364198,
    "longitude": 153.016329,
    "geocode_method": "Full Address"
  },
  {
    "laboratory": "191",
    "APA Number": "42",
    "ACC": "",
    "ACC Name": "WESTERN DIAGNOSTIC PATH QUEENSLAND MEDICAL LAB",
    "Address": "PATHOLOGY ROOM SHOP 5 5 HARDEY RD",
    "Suburb / Town": "GLEN FORREST WA 6071",
    "From Date": "01/07/2008",
    "To Date": "30/06/2027",
    "latitude": -31.917264,
    "longitude": 116.108149,
    "geocode_method": "Full Address"
  },
  {
    "laboratory": "192",
    "APA Number": "42",
    "ACC": "606",
    "ACC Name": "QML PATHOLOGY",
    "Address": "SHOP 2 184 STATION RD",
    "Suburb / Town": "BURPENGARY QLD 4505 ARUNDEL QLD 4214",
    "From Date": "",
    "To Date": "30/06/2027",
    "latitude": -27.153464,
    "longitude": 152.975713,
    "geocode_method": "Full Address"
  },
  {
    "laboratory": "193",
    "APA Number": "42",
    "ACC": "608",
    "ACC Name": "",
    "Address": "SHOP 37 ARUNDEL PLAZA S/C 230- 232 NAPPER RD",
    "Suburb / Town": "",
    "From Date": "",
    "To Date": "",
    "latitude": null,
    "longitude": null,
    "geocode_method": "No result"
  },
  {
    "laboratory": "194",
    "APA Number": "42",
    "ACC": "613",
    "ACC Name": "LAVERTY PATHOLOGY QML PATHOLOGY",
    "Address": "214 WESTON ST",
    "Suburb / Town": "PANANIA NSW 2213",
    "From Date": "27/04/2004",
    "To Date": "30/06/2027",
    "latitude": -33.954365,
    "longitude": 150.998737,
    "geocode_method": "Full Address"
  },
  {
    "laboratory": "195",
    "APA Number": "42",
    "ACC": "621",
    "ACC Name": "",
    "Address": "THE GAS WORKS SHOP 11A 137 Address SHAKESPEARE ST",
    "Suburb / Town": "MACKAY QLD 4740",
    "From Date": "",
    "To Date": "30/06/2027",
    "latitude": -21.148153,
    "longitude": 149.188238,
    "geocode_method": "Full Address"
  },
  {
    "laboratory": "196",
    "APA Number": "42",
    "ACC": "",
    "ACC Name": "QUEENSLAND MEDICAL LAB QUEENSLAND MEDICAL LAB",
    "Address": "PATH CLN WARNER VILLAGE S/C SHOP 19A 353 SAMSONVALE RD",
    "Suburb / Town": "WARNER QLD 4500",
    "From Date": "21/06/2004",
    "To Date": "30/06/2027",
    "latitude": -27.292622,
    "longitude": 152.951906,
    "geocode_method": "Full Address"
  },
  {
    "laboratory": "197",
    "APA Number": "42",
    "ACC": "623",
    "ACC Name": "QUEENSLAND MEDICAL LAB",
    "Address": "LEASE 4A GREENFIELD CC 4 GRANDVIEW DR",
    "Suburb / Town": "MOUNT PLEASANT QLD 4740 PARKINSON QLD 4115",
    "From Date": "",
    "To Date": "30/06/2027",
    "latitude": -21.12161,
    "longitude": 149.1602,
    "geocode_method": "Full Address"
  },
  {
    "laboratory": "198",
    "APA Number": "42",
    "ACC": "624",
    "ACC Name": "",
    "Address": "P/RM PARKINSON PLAZA M/C G SHP- 11 441 ALGESTER RD",
    "Suburb / Town": "",
    "From Date": "",
    "To Date": "",
    "latitude": null,
    "longitude": null,
    "geocode_method": "No result"
  },
  {
    "laboratory": "199",
    "APA Number": "42",
    "ACC": "626",
    "ACC Name": "LAVERTY PATHOLOGY",
    "Address": "PATH RM WESTMEAD SPEC M/C 151- 155 HAWKESBURY RD",
    "Suburb / Town": "WESTMEAD NSW 2145",
    "From Date": "09/07/2004",
    "To Date": "30/06/2027",
    "latitude": -33.807912,
    "longitude": 150.98735,
    "geocode_method": "Full Address"
  },
  {
    "laboratory": "200",
    "APA Number": "42",
    "ACC": "",
    "ACC Name": "DOREVITCH PATHOLOGY",
    "Address": "PATH RM ASPENDALE GARDEN MC 8ASPENDALE SPRINGVALE RD",
    "Suburb / Town": "GARDEN VIC 3195",
    "From Date": "16/08/2004",
    "To Date": "30/06/2027",
    "latitude": -38.022275,
    "longitude": 145.136268,
    "geocode_method": "Full Address"
  },
  {
    "laboratory": "201",
    "APA Number": "42",
    "ACC": "632",
    "ACC Name": "QUEENSLAND MED LAB QUEENSLAND MEDICAL LAB PATH",
    "Address": "QML PATH TNCY T12 ORIEL PL 531 SANDGATE RD",
    "Suburb / Town": "CLAYFIELD QLD 4011 POINT VERNON QLD 4655",
    "From Date": "30/08/2004",
    "To Date": "30/06/2027",
    "latitude": -27.426245,
    "longitude": 153.051063,
    "geocode_method": "Full Address"
  },
  {
    "laboratory": "202",
    "APA Number": "42",
    "ACC": "634",
    "ACC Name": "",
    "Address": "POINT VERNON MED PRECINCT 32 MURPHY ST",
    "Suburb / Town": "",
    "From Date": "",
    "To Date": "",
    "latitude": null,
    "longitude": null,
    "geocode_method": "No result"
  },
  {
    "laboratory": "203",
    "APA Number": "42",
    "ACC": "639",
    "ACC Name": "LAVERTY PATHOLOGY",
    "Address": "THE GOOD SHEPHERD CLINIC SHOP 13 2-4 MAIN ST",
    "Suburb / Town": "MOUNT ANNAN NSW 2567",
    "From Date": "01/07/2008",
    "To Date": "30/06/2027",
    "latitude": -34.049694,
    "longitude": 150.756823,
    "geocode_method": "Full Address"
  },
  {
    "laboratory": "204",
    "APA Number": "42",
    "ACC": "",
    "ACC Name": "LAVERTY PATHOLOGY LAVERTY PATHOLOGY",
    "Address": "PATH SUITE SCONE MED CENTRE 5 SURMAN ST",
    "Suburb / Town": "SCONE NSW 2337",
    "From Date": "20/09/2004",
    "To Date": "30/06/2027",
    "latitude": -32.053448,
    "longitude": 150.866449,
    "geocode_method": "Full Address"
  },
  {
    "laboratory": "205",
    "APA Number": "42",
    "ACC": "643",
    "ACC Name": "QML PATHOLOGY",
    "Address": "SHOP 1 27-29 KING ST",
    "Suburb / Town": "ROCKDALE NSW 2216 NORTH LAKES QLD 4509",
    "From Date": "",
    "To Date": "30/06/2027",
    "latitude": -33.953164,
    "longitude": 151.140323,
    "geocode_method": "Full Address"
  },
  {
    "laboratory": "206",
    "APA Number": "42",
    "ACC": "644",
    "ACC Name": "",
    "Address": "LAKELANDS MEDICAL T9 1 GREGOR ST W",
    "Suburb / Town": "",
    "From Date": "",
    "To Date": "",
    "latitude": null,
    "longitude": null,
    "geocode_method": "No result"
  },
  {
    "laboratory": "207",
    "APA Number": "42",
    "ACC": "655",
    "ACC Name": "QUEENSLAND MEDICAL LAB DOREVITCH PATHOLOGY",
    "Address": "SHOP 16 TWEED HUB 112-140 MINJUNGBAL DR",
    "Suburb / Town": "TWEED HEADS SOUT NSW 2486",
    "From Date": "31/01/2005",
    "To Date": "30/06/2027",
    "latitude": -28.207216,
    "longitude": 153.54543,
    "geocode_method": "Full Address"
  },
  {
    "laboratory": "208",
    "APA Number": "42",
    "ACC": "657",
    "ACC Name": "",
    "Address": "PATH RM 1 GLEN UNION M/C 224 SPRINGVALE RD",
    "Suburb / Town": "GLEN WAVERLEY VIC 3150",
    "From Date": "",
    "To Date": "30/06/2027",
    "latitude": -37.876506,
    "longitude": 145.166718,
    "geocode_method": "Full Address"
  },
  {
    "laboratory": "209",
    "APA Number": "42",
    "ACC": "658",
    "ACC Name": "QUEENSLAND MEDICAL LAB QUEENSLAND MEDICAL LAB",
    "Address": "WESTFIELD NTH LAKES SH 1014 1 NORTH LAKES DR",
    "Suburb / Town": "NORTH LAKES QLD 4509 MAPLETON QLD 4560",
    "From Date": "07/02/2005",
    "To Date": "30/06/2027",
    "latitude": -27.24203,
    "longitude": 153.016809,
    "geocode_method": "Full Address"
  },
  {
    "laboratory": "210",
    "APA Number": "42",
    "ACC": "663",
    "ACC Name": "",
    "Address": "SHOP 1A 5 OBI OBI RD",
    "Suburb / Town": "",
    "From Date": "",
    "To Date": "",
    "latitude": null,
    "longitude": null,
    "geocode_method": "No result"
  },
  {
    "laboratory": "211",
    "APA Number": "42",
    "ACC": "",
    "ACC Name": "QUEENSLAND MEDICAL LAB LAVERTY PATHOLOGY",
    "Address": "PATHOLOGY ROOM SHOP 3 28 BAMFORD LANE",
    "Suburb / Town": "KIRWAN QLD 4817",
    "From Date": "21/02/2005",
    "To Date": "30/06/2027",
    "latitude": -19.291429,
    "longitude": 146.743847,
    "geocode_method": "Full Address"
  },
  {
    "laboratory": "212",
    "APA Number": "42",
    "ACC": "666",
    "ACC Name": "QML PATHOLOGY",
    "Address": "SE 2 135-137 PETER ST",
    "Suburb / Town": "WAGGA WAGGA NSW 2650 NUNDAH QLD 4012",
    "From Date": "",
    "To Date": "30/06/2027",
    "latitude": -35.110621,
    "longitude": 147.369301,
    "geocode_method": "Full Address"
  },
  {
    "laboratory": "213",
    "APA Number": "42",
    "ACC": "667",
    "ACC Name": "",
    "Address": "SUITE 7 G 1220 SANDGATE RD",
    "Suburb / Town": "",
    "From Date": "",
    "To Date": "",
    "latitude": null,
    "longitude": null,
    "geocode_method": "No result"
  },
  {
    "laboratory": "214",
    "APA Number": "42",
    "ACC": "",
    "ACC Name": "QUEENSLAND MEDICAL LAB DOREVITCH PATHOLOGY",
    "Address": "SHOP 6 4 PATRICKS RD Address",
    "Suburb / Town": "ARANA HILLS QLD 4054 MOOROOLBARK VIC 3138",
    "From Date": "21/03/2005",
    "To Date": "30/06/2027",
    "latitude": -27.397213,
    "longitude": 152.959407,
    "geocode_method": "Full Address"
  },
  {
    "laboratory": "215",
    "APA Number": "42",
    "ACC": "672",
    "ACC Name": "",
    "Address": "203 HULL RD",
    "Suburb / Town": "",
    "From Date": "",
    "To Date": "",
    "latitude": null,
    "longitude": null,
    "geocode_method": "No result"
  },
  {
    "laboratory": "216",
    "APA Number": "42",
    "ACC": "",
    "ACC Name": "QML PATHOLOGY LAVERTY PATHOLOGY",
    "Address": "SHOP T02B COCO'S S/C 1 MANCHESTER RD",
    "Suburb / Town": "CARRARA QLD 4211",
    "From Date": "01/07/2008",
    "To Date": "30/06/2027",
    "latitude": -28.031065,
    "longitude": 153.392961,
    "geocode_method": "Full Address"
  },
  {
    "laboratory": "217",
    "APA Number": "42",
    "ACC": "679",
    "ACC Name": "",
    "Address": "PATH RM OLD BAR MEDICAL CTR SE 6 46 OLD BAR RD",
    "Suburb / Town": "OLD BAR NSW 2430",
    "From Date": "",
    "To Date": "30/06/2027",
    "latitude": -31.969375,
    "longitude": 152.585188,
    "geocode_method": "Full Address"
  },
  {
    "laboratory": "218",
    "APA Number": "42",
    "ACC": "686",
    "ACC Name": "QML PATHOLOGY",
    "Address": "SHOP 4133 LEVEL 4 19 ROBINA TOWN CENTRE DR",
    "Suburb / Town": "ROBINA TOWN CENT QLD 4230",
    "From Date": "30/05/2005",
    "To Date": "30/06/2027",
    "latitude": -28.077287,
    "longitude": 153.385502,
    "geocode_method": "Full Address"
  },
  {
    "laboratory": "219",
    "APA Number": "42",
    "ACC": "688",
    "ACC Name": "DOREVITCH PATHOLOGY",
    "Address": "PTH RM DEER PARK CENTRAL MC 26DEER CANTERBURY ST",
    "Suburb / Town": "PARK VIC 3023",
    "From Date": "01/07/2008",
    "To Date": "30/06/2027",
    "latitude": -37.771027,
    "longitude": 144.77209,
    "geocode_method": "Full Address"
  },
  {
    "laboratory": "220",
    "APA Number": "42",
    "ACC": "",
    "ACC Name": "LAVERTY PATHOLOGY",
    "Address": "SHOP 3 5 & 7 128 WYONG RD",
    "Suburb / Town": "KILLARNEY VALE NSW 2261",
    "From Date": "20/06/2005",
    "To Date": "30/06/2027",
    "latitude": -33.366344,
    "longitude": 151.462702,
    "geocode_method": "Full Address"
  },
  {
    "laboratory": "221",
    "APA Number": "42",
    "ACC": "693",
    "ACC Name": "LAVERTY PATHOLOGY",
    "Address": "U 3 53-55 FERNLEIGH RD",
    "Suburb / Town": "WAGGA WAGGA NSW 2650",
    "From Date": "17/06/2005",
    "To Date": "30/06/2027",
    "latitude": -35.132549,
    "longitude": 147.357767,
    "geocode_method": "Full Address"
  },
  {
    "laboratory": "222",
    "APA Number": "42",
    "ACC": "697",
    "ACC Name": "LAVERTY PATHOLOGY LAVERTY PATHOLOGY",
    "Address": "SHOP 102 35 BELGRAVE ST",
    "Suburb / Town": "KEMPSEY NSW 2440",
    "From Date": "11/07/2005",
    "To Date": "30/06/2027",
    "latitude": -31.079973,
    "longitude": 152.839653,
    "geocode_method": "Full Address"
  },
  {
    "laboratory": "223",
    "APA Number": "42",
    "ACC": "699",
    "ACC Name": "LAVERTY PATHOLOGY",
    "Address": "SE 10 & 12 CHA BUILDING 9-25 CAPTAIN COOK DR",
    "Suburb / Town": "BARRACK HEIGHTS NSW 2528 LAURIETON NSW 2443",
    "From Date": "",
    "To Date": "30/06/2027",
    "latitude": -34.557605,
    "longitude": 150.847569,
    "geocode_method": "Full Address"
  },
  {
    "laboratory": "224",
    "APA Number": "42",
    "ACC": "700",
    "ACC Name": "",
    "Address": "PATH RM THE BOATHOUSE SHOP 3 60 BOLD ST",
    "Suburb / Town": "",
    "From Date": "",
    "To Date": "",
    "latitude": null,
    "longitude": null,
    "geocode_method": "No result"
  },
  {
    "laboratory": "225",
    "APA Number": "42",
    "ACC": "701",
    "ACC Name": "DOREVITCH PATHOLOGY",
    "Address": "PATH SE TUNSTALL SQUARE M/C 2 MITCHAM RD",
    "Suburb / Town": "DONVALE VIC 3111",
    "From Date": "01/08/2005",
    "To Date": "30/06/2027",
    "latitude": -37.790826,
    "longitude": 145.173174,
    "geocode_method": "Full Address"
  },
  {
    "laboratory": "226",
    "APA Number": "42",
    "ACC": "",
    "ACC Name": "LAVERTY PATHOLOGY",
    "Address": "PATH SE 1 GLENROCK CP 8 TANDA PL",
    "Suburb / Town": "GLENFIELD PARK NSW 2650",
    "From Date": "25/08/2005",
    "To Date": "30/06/2027",
    "latitude": -35.136736,
    "longitude": 147.332388,
    "geocode_method": "Full Address"
  },
  {
    "laboratory": "227",
    "APA Number": "42",
    "ACC": "708",
    "ACC Name": "DOREVITCH PATHOLOGY LAVERTY PATHOLOGY",
    "Address": "MT MARTHA VILLAGE CLNC SE 2 2 LANGRIGG AVE",
    "Suburb / Town": "MT MARTHA VIC 3934 COBAR NSW 2835",
    "From Date": "10/10/2005",
    "To Date": "30/06/2027",
    "latitude": -38.267982,
    "longitude": 145.014335,
    "geocode_method": "Full Address"
  },
  {
    "laboratory": "228",
    "APA Number": "42",
    "ACC": "710",
    "ACC Name": "",
    "Address": "PATH RM COBAR PHCC 26 HARCOURT ST",
    "Suburb / Town": "",
    "From Date": "",
    "To Date": "",
    "latitude": null,
    "longitude": null,
    "geocode_method": "No result"
  },
  {
    "laboratory": "229",
    "APA Number": "42",
    "ACC": "711",
    "ACC Name": "DOREVITCH PATHOLOGY",
    "Address": "MARYBOROUGH DIST HEALTH SVC 75-87 CLARENDON ST",
    "Suburb / Town": "MARYBOROUGH VIC 3465",
    "From Date": "24/10/2005",
    "To Date": "30/06/2027",
    "latitude": -37.044014,
    "longitude": 143.737616,
    "geocode_method": "Full Address"
  },
  {
    "laboratory": "230",
    "APA Number": "42",
    "ACC": "",
    "ACC Name": "QUEENSLAND MEDICAL LAB QUEENSLAND MEDICAL LAB",
    "Address": "QML TNCY MAJELLAN M/C U 1 107 LANDSBOROUGH AVE",
    "Suburb / Town": "SCARBOROUGH QLD 4020",
    "From Date": "19/12/2005",
    "To Date": "30/06/2027",
    "latitude": -27.199405,
    "longitude": 153.114923,
    "geocode_method": "Full Address"
  },
  {
    "laboratory": "231",
    "APA Number": "42",
    "ACC": "721",
    "ACC Name": "",
    "Address": "HOLLAND PARK PROF SUITES SE 1 1000 LOGAN RD",
    "Suburb / Town": "HOLLAND PARK QLD 4121",
    "From Date": "",
    "To Date": "30/06/2027",
    "latitude": -27.519899,
    "longitude": 153.062715,
    "geocode_method": "Full Address"
  },
  {
    "laboratory": "232",
    "APA Number": "42",
    "ACC": "722",
    "ACC Name": "QUEENSLAND MEDICAL LAB DOREVITCH PATHOLOGY",
    "Address": "PATH RM ASHMORE PLAZA S/C SHOP 9 130 COTLEW ST",
    "Suburb / Town": "ASHMORE QLD 4214 FAWKNER VIC 3060",
    "From Date": "03/01/2006",
    "To Date": "30/06/2027",
    "latitude": -27.987739,
    "longitude": 153.390961,
    "geocode_method": "Full Address"
  },
  {
    "laboratory": "233",
    "APA Number": "42",
    "ACC": "732",
    "ACC Name": "LAVERTY PATHOLOGY",
    "Address": "PTH RM 1 FAWKNER HEALTHCARE 1272 SYDNEY RD Address",
    "Suburb / Town": "GRIFFITH NSW 2680",
    "From Date": "",
    "To Date": "",
    "latitude": -33.79597,
    "longitude": 151.27709,
    "geocode_method": "Full Address"
  },
  {
    "laboratory": "234",
    "APA Number": "42",
    "ACC": "737",
    "ACC Name": "",
    "Address": "PATHOLOGY ROOM 3 ANIMOO AVE",
    "Suburb / Town": "",
    "From Date": "",
    "To Date": "",
    "latitude": null,
    "longitude": null,
    "geocode_method": "No result"
  },
  {
    "laboratory": "235",
    "APA Number": "42",
    "ACC": "",
    "ACC Name": "LAVERTY PATHOLOGY",
    "Address": "84 ALBERT ST",
    "Suburb / Town": "TAREE NSW 2430",
    "From Date": "10/01/2006",
    "To Date": "30/06/2027",
    "latitude": -31.913626,
    "longitude": 152.457236,
    "geocode_method": "Full Address"
  },
  {
    "laboratory": "236",
    "APA Number": "42",
    "ACC": "746",
    "ACC Name": "LAVERTY PATHOLOGY LAVERTY PATHOLOGY",
    "Address": "PATH ROOM TAREE MEDICAL CTR 68TAREE CHATHAM ST",
    "Suburb / Town": "NSW 2430 TUNCURRY NSW 2428",
    "From Date": "10/01/2006",
    "To Date": "30/06/2027",
    "latitude": -32.179543,
    "longitude": 152.511882,
    "geocode_method": "Postcode"
  },
  {
    "laboratory": "237",
    "APA Number": "42",
    "ACC": "747",
    "ACC Name": "",
    "Address": "COLLECTION ROOMS U 1 19 MANNING ST",
    "Suburb / Town": "",
    "From Date": "",
    "To Date": "",
    "latitude": null,
    "longitude": null,
    "geocode_method": "No result"
  },
  {
    "laboratory": "238",
    "APA Number": "42",
    "ACC": "748",
    "ACC Name": "LAVERTY PATHOLOGY QUEENSLAND MEDICAL LAB",
    "Address": "SE 1 63 HIGH ST",
    "Suburb / Town": "WAUCHOPE NSW 2446",
    "From Date": "10/01/2006",
    "To Date": "30/06/2027",
    "latitude": -31.457458,
    "longitude": 152.729245,
    "geocode_method": "Full Address"
  },
  {
    "laboratory": "239",
    "APA Number": "42",
    "ACC": "756",
    "ACC Name": "",
    "Address": "REDLAND BAY VILL SC BLDG 7 - SH 30 133 BROADWATER TCE",
    "Suburb / Town": "REDLAND BAY QLD 4165",
    "From Date": "",
    "To Date": "30/06/2027",
    "latitude": -27.612026,
    "longitude": 153.301981,
    "geocode_method": "Full Address"
  },
  {
    "laboratory": "240",
    "APA Number": "42",
    "ACC": "758",
    "ACC Name": "LAVERTY PATHOLOGY QML PATHOLOGY",
    "Address": "PATH RM WESTFIELD SHOP 104 G 20BELCONNEN BENJAMIN WAY",
    "Suburb / Town": "ACT 2617 MANUNDA QLD 4870",
    "From Date": "08/02/2006",
    "To Date": "30/06/2027",
    "latitude": -35.075841,
    "longitude": 138.851643,
    "geocode_method": "Full Address"
  },
  {
    "laboratory": "241",
    "APA Number": "42",
    "ACC": "765",
    "ACC Name": "",
    "Address": "TENANCY 21B RAINTREES SC - ALFRED ST",
    "Suburb / Town": "",
    "From Date": "",
    "To Date": "",
    "latitude": null,
    "longitude": null,
    "geocode_method": "No result"
  },
  {
    "laboratory": "242",
    "APA Number": "42",
    "ACC": "768",
    "ACC Name": "DOREVITCH PATHOLOGY",
    "Address": "PATH RMS GEELONG CITY M/C 255 RYRIE ST",
    "Suburb / Town": "GEELONG VIC 3220",
    "From Date": "10/04/2006",
    "To Date": "30/06/2027",
    "latitude": -38.150347,
    "longitude": 144.364157,
    "geocode_method": "Full Address"
  },
  {
    "laboratory": "243",
    "APA Number": "42",
    "ACC": "",
    "ACC Name": "QML PATHOLOGY",
    "Address": "SHOP 4 163-171 RIDING RD",
    "Suburb / Town": "HAWTHORNE QLD 4171",
    "From Date": "01/07/2008",
    "To Date": "30/06/2027",
    "latitude": -27.460929,
    "longitude": 153.063286,
    "geocode_method": "Full Address"
  },
  {
    "laboratory": "244",
    "APA Number": "42",
    "ACC": "771",
    "ACC Name": "LAVERTY PATHOLOGY LAVERTY PATHOLOGY",
    "Address": "PATH RM 1 KAREELA FAM PRAC 12 FREYA ST",
    "Suburb / Town": "KAREELA NSW 2232 MERRYLANDS NSW 2160",
    "From Date": "13/04/2006",
    "To Date": "30/06/2027",
    "latitude": -34.017204,
    "longitude": 151.081809,
    "geocode_method": "Full Address"
  },
  {
    "laboratory": "245",
    "APA Number": "42",
    "ACC": "772",
    "ACC Name": "",
    "Address": "PATH SE 1 MYHEALTH M/C SHOP 1002 1 MCFARLANE ST",
    "Suburb / Town": "",
    "From Date": "",
    "To Date": "",
    "latitude": null,
    "longitude": null,
    "geocode_method": "No result"
  },
  {
    "laboratory": "246",
    "APA Number": "42",
    "ACC": "773",
    "ACC Name": "QML PATHOLOGY DOREVITCH PATHOLOGY",
    "Address": "PATH RM SHOPS 4 & 6 86 EDITH ST",
    "Suburb / Town": "WYNNUM QLD 4178",
    "From Date": "02/05/2006",
    "To Date": "30/06/2027",
    "latitude": -27.445454,
    "longitude": 153.173293,
    "geocode_method": "Full Address"
  },
  {
    "laboratory": "247",
    "APA Number": "42",
    "ACC": "777",
    "ACC Name": "",
    "Address": "DOREVITCH PATHOLOGY G 122 DAY ST",
    "Suburb / Town": "BAIRNSDALE VIC 3875",
    "From Date": "",
    "To Date": "30/06/2027",
    "latitude": -37.831213,
    "longitude": 147.608441,
    "geocode_method": "Full Address"
  },
  {
    "laboratory": "248",
    "APA Number": "42",
    "ACC": "780",
    "ACC Name": "DOREVITCH PATHOLOGY",
    "Address": "PATH RM SILVERTON MED CTR 135 JACKSONS RD",
    "Suburb / Town": "NOBLE PARK NORTH VIC 3174",
    "From Date": "01/07/2008",
    "To Date": "30/06/2027",
    "latitude": -37.946138,
    "longitude": 145.191806,
    "geocode_method": "Full Address"
  },
  {
    "laboratory": "249",
    "APA Number": "42",
    "ACC": "782",
    "ACC Name": "LAVERTY PATHOLOGY DOREVITCH PATHOLOGY",
    "Address": "TENANCY 3 103 PEEL ST",
    "Suburb / Town": "TAMWORTH NSW 2340",
    "From Date": "01/07/2008",
    "To Date": "30/06/2027",
    "latitude": -31.077268,
    "longitude": 150.916223,
    "geocode_method": "Full Address"
  },
  {
    "laboratory": "250",
    "APA Number": "42",
    "ACC": "785",
    "ACC Name": "",
    "Address": "PTH RM HEYFIELD BUSH N/HOSP 14- 16 LICOLA RD",
    "Suburb / Town": "HEYFIELD VIC 3858",
    "From Date": "",
    "To Date": "30/06/2027",
    "latitude": -37.976813,
    "longitude": 146.783666,
    "geocode_method": "Full Address"
  },
  {
    "laboratory": "251",
    "APA Number": "42",
    "ACC": "788",
    "ACC Name": "QML PATHOLOGY",
    "Address": "P/RM CASTLE HILL M/C SHOP 5 272 DOHLES ROCKS RD",
    "Suburb / Town": "MURRUMBA DOWNS QLD 4503",
    "From Date": "01/07/2008",
    "To Date": "30/06/2027",
    "latitude": -27.256409,
    "longitude": 152.988896,
    "geocode_method": "Full Address"
  },
  {
    "laboratory": "252",
    "APA Number": "42",
    "ACC": "796",
    "ACC Name": "LAVERTY PATHOLOGY",
    "Address": "PATH RM LAKE CATHIE MED CTR 1459 OCEAN DR",
    "Suburb / Town": "LAKE CATHIE NSW 2445",
    "From Date": "01/07/2008",
    "To Date": "30/06/2027",
    "latitude": -31.562846,
    "longitude": 152.844883,
    "geocode_method": "Full Address"
  },
  {
    "laboratory": "253",
    "APA Number": "42",
    "ACC": "",
    "ACC Name": "DOREVITCH PATHOLOGY DOREVITCH PATHOLOGY",
    "Address": "RM 129 CHELSEA HOUSE FL 1 47-59 FLEMINGTON RD Address",
    "Suburb / Town": "NORTH MELBOURNE VIC 3051 ORBOST VIC 3888",
    "From Date": "21/05/2006",
    "To Date": "30/06/2027",
    "latitude": -37.799588,
    "longitude": 144.95436,
    "geocode_method": "Full Address"
  },
  {
    "laboratory": "254",
    "APA Number": "42",
    "ACC": "800",
    "ACC Name": "",
    "Address": "PATH RM ORBOST & DIST HOSP 104 BOUNDARY RD",
    "Suburb / Town": "",
    "From Date": "",
    "To Date": "",
    "latitude": null,
    "longitude": null,
    "geocode_method": "No result"
  },
  {
    "laboratory": "255",
    "APA Number": "42",
    "ACC": "803",
    "ACC Name": "DOREVITCH PATHOLOGY",
    "Address": "PATH LAB CENTRAL GIPPSLAND 155 GUTHRIDGE PDE",
    "Suburb / Town": "SALE VIC 3850",
    "From Date": "21/05/2006",
    "To Date": "30/06/2027",
    "latitude": -38.108905,
    "longitude": 147.081391,
    "geocode_method": "Full Address"
  },
  {
    "laboratory": "256",
    "APA Number": "42",
    "ACC": "",
    "ACC Name": "DOREVITCH PATHOLOGY LAVERTY PATHOLOGY",
    "Address": "PATH SE CLOCKTOWER M/C 278-286 RAYMOND ST",
    "Suburb / Town": "SALE VIC 3850",
    "From Date": "21/05/2006",
    "To Date": "30/06/2027",
    "latitude": -38.106733,
    "longitude": 147.065717,
    "geocode_method": "Full Address"
  },
  {
    "laboratory": "257",
    "APA Number": "42",
    "ACC": "806",
    "ACC Name": "",
    "Address": "PATH SE KRUGER MED CENTRE 10 EAST ST",
    "Suburb / Town": "HARDEN NSW 2587",
    "From Date": "",
    "To Date": "30/06/2027",
    "latitude": -34.56253,
    "longitude": 148.364066,
    "geocode_method": "Full Address"
  },
  {
    "laboratory": "258",
    "APA Number": "42",
    "ACC": "808",
    "ACC Name": "DOREVITCH PATHOLOGY",
    "Address": "PATHOLOGY ROOM 6 KAY ST",
    "Suburb / Town": "TRARALGON VIC 3844",
    "From Date": "21/05/2006",
    "To Date": "30/06/2027",
    "latitude": -38.194183,
    "longitude": 146.537019,
    "geocode_method": "Full Address"
  },
  {
    "laboratory": "259",
    "APA Number": "42",
    "ACC": "816",
    "ACC Name": "QUEENSLAND MEDICAL LAB",
    "Address": "QML PROCEDURE ROOM 11 RIVERVIEW PL",
    "Suburb / Town": "MURARRIE QLD 4172",
    "From Date": "29/05/2006",
    "To Date": "30/06/2027",
    "latitude": -34.740839,
    "longitude": 149.729437,
    "geocode_method": "Full Address"
  },
  {
    "laboratory": "260",
    "APA Number": "42",
    "ACC": "",
    "ACC Name": "QUEENSLAND MEDICAL LAB",
    "Address": "ROOM 3 AND 4 1 SOUTH ST",
    "Suburb / Town": "ALSTONVILLE NSW 2477",
    "From Date": "29/05/2006",
    "To Date": "30/06/2027",
    "latitude": -28.839946,
    "longitude": 153.439428,
    "geocode_method": "Full Address"
  },
  {
    "laboratory": "261",
    "APA Number": "42",
    "ACC": "821",
    "ACC Name": "QML PATHOLOGY",
    "Address": "SHOP 2 62 HIGH ST",
    "Suburb / Town": "BOONAH QLD 4310",
    "From Date": "19/06/2006",
    "To Date": "30/06/2027",
    "latitude": -27.997203,
    "longitude": 152.682688,
    "geocode_method": "Full Address"
  },
  {
    "laboratory": "262",
    "APA Number": "42",
    "ACC": "826",
    "ACC Name": "QML PATHOLOGY",
    "Address": "STOCKLAND S/C SHOP RS1D G 120- 331 YAAMBA RD",
    "Suburb / Town": "PARK AVENUE QLD 4701",
    "From Date": "01/07/2008",
    "To Date": "30/06/2027",
    "latitude": -23.354184,
    "longitude": 150.522249,
    "geocode_method": "Full Address"
  },
  {
    "laboratory": "263",
    "APA Number": "42",
    "ACC": "",
    "ACC Name": "DOREVITCH PATHOLOGY DOREVITCH PATHOLOGY",
    "Address": "PRAHRAN MARKET CLINIC M 325 CHAPEL ST",
    "Suburb / Town": "PRAHRAN VIC 3181",
    "From Date": "01/07/2008",
    "To Date": "30/06/2027",
    "latitude": -37.84722,
    "longitude": 144.99387,
    "geocode_method": "Full Address"
  },
  {
    "laboratory": "264",
    "APA Number": "42",
    "ACC": "834",
    "ACC Name": "",
    "Address": "PATH PREMISES BENALLA HLTH 45- 63 COSTER ST",
    "Suburb / Town": "BENALLA VIC 3672",
    "From Date": "",
    "To Date": "30/06/2027",
    "latitude": -36.556575,
    "longitude": 145.995296,
    "geocode_method": "Full Address"
  },
  {
    "laboratory": "265",
    "APA Number": "42",
    "ACC": "846",
    "ACC Name": "QML PATHOLOGY",
    "Address": "U 3 40-46 THURINGOWA DR",
    "Suburb / Town": "KIRWAN QLD 4817",
    "From Date": "01/07/2008",
    "To Date": "30/06/2027",
    "latitude": -19.312919,
    "longitude": 146.729017,
    "geocode_method": "Full Address"
  },
  {
    "laboratory": "266",
    "APA Number": "42",
    "ACC": "850",
    "ACC Name": "DOREVITCH PATHOLOGY",
    "Address": "PATH RM KORUMBURRA M/C 50 RADOVICK ST",
    "Suburb / Town": "KORUMBURRA VIC 3950",
    "From Date": "28/08/2006",
    "To Date": "30/06/2027",
    "latitude": -38.434547,
    "longitude": 145.819026,
    "geocode_method": "Full Address"
  },
  {
    "laboratory": "267",
    "APA Number": "42",
    "ACC": "",
    "ACC Name": "QML PATHOLOGY QUEENSLAND MEDICAL LAB",
    "Address": "PATH RM LAKE KAWANA GP SE 7 5 INNOVATION PKWY",
    "Suburb / Town": "BIRTINYA QLD 4575",
    "From Date": "04/09/2006",
    "To Date": "30/06/2027",
    "latitude": -26.733768,
    "longitude": 153.122291,
    "geocode_method": "Full Address"
  },
  {
    "laboratory": "268",
    "APA Number": "42",
    "ACC": "854",
    "ACC Name": "",
    "Address": "THE FAMILY PRACT AT HINKLER - SHP 6A 16 MARYBOROUGH ST",
    "Suburb / Town": "BUNDABERG QLD 4670",
    "From Date": "",
    "To Date": "30/06/2027",
    "latitude": -24.871963,
    "longitude": 152.349472,
    "geocode_method": "Full Address"
  },
  {
    "laboratory": "269",
    "APA Number": "42",
    "ACC": "856",
    "ACC Name": "DOREVITCH PATHOLOGY QML PATHOLOGY",
    "Address": "PATH RM ST KILDA RD MED CTR L 1 391 ST KILDA RD 1LOGANLEA",
    "Suburb / Town": "MELBOURNE VIC 3004 QLD 4131",
    "From Date": "02/10/2006",
    "To Date": "30/06/2027",
    "latitude": -34.737508,
    "longitude": 138.545793,
    "geocode_method": "Full Address"
  },
  {
    "laboratory": "270",
    "APA Number": "42",
    "ACC": "861",
    "ACC Name": "",
    "Address": "PATH RM, QML TCY LOGANLEA M U 60 HAIG ST",
    "Suburb / Town": "",
    "From Date": "",
    "To Date": "",
    "latitude": null,
    "longitude": null,
    "geocode_method": "No result"
  },
  {
    "laboratory": "271",
    "APA Number": "42",
    "ACC": "868",
    "ACC Name": "LAVERTY PATHOLOGY QML PATHOLOGY",
    "Address": "G 155 NELSON ST",
    "Suburb / Town": "WALLSEND NSW 2287",
    "From Date": "05/11/2006",
    "To Date": "30/06/2027",
    "latitude": -32.902212,
    "longitude": 151.669103,
    "geocode_method": "Full Address"
  },
  {
    "laboratory": "272",
    "APA Number": "42",
    "ACC": "870",
    "ACC Name": "",
    "Address": "PATH RM MEDICI M/C TNCY 2 13-15 SCOTT ST",
    "Suburb / Town": "TOOWOOMBA QLD 4350",
    "From Date": "",
    "To Date": "30/06/2027",
    "latitude": -27.565258,
    "longitude": 151.972848,
    "geocode_method": "Full Address"
  },
  {
    "laboratory": "273",
    "APA Number": "42",
    "ACC": "872",
    "ACC Name": "LAVERTY PATHOLOGY DOREVITCH PATHOLOGY",
    "Address": "PATH RM BROADMEADOW M/C SE 7 FL 1 154 LAMBTON RD Address",
    "Suburb / Town": "BROADMEADOW NSW 229218/11/2006 BERWICK VIC 3806",
    "From Date": "",
    "To Date": "30/06/2027",
    "latitude": -32.922947,
    "longitude": 151.724297,
    "geocode_method": "Full Address"
  },
  {
    "laboratory": "274",
    "APA Number": "42",
    "ACC": "875",
    "ACC Name": "",
    "Address": "PATHOLOGY ROOM U 2 36B CLYDE RD",
    "Suburb / Town": "",
    "From Date": "",
    "To Date": "",
    "latitude": null,
    "longitude": null,
    "geocode_method": "No result"
  },
  {
    "laboratory": "275",
    "APA Number": "42",
    "ACC": "880",
    "ACC Name": "QML PATHOLOGY DOREVITCH PATHOLOGY",
    "Address": "U 2 70 CITY RD",
    "Suburb / Town": "BEENLEIGH QLD 4207",
    "From Date": "31/12/2006",
    "To Date": "30/06/2027",
    "latitude": -27.713454,
    "longitude": 153.202778,
    "geocode_method": "Full Address"
  },
  {
    "laboratory": "276",
    "APA Number": "42",
    "ACC": "881",
    "ACC Name": "",
    "Address": "PATH SE 1 TOWERHILL M/C 143 FRANKSTON-FLINDERS RD",
    "Suburb / Town": "FRANKSTON VIC 3199",
    "From Date": "",
    "To Date": "30/06/2027",
    "latitude": -38.162854,
    "longitude": 145.136843,
    "geocode_method": "Full Address"
  },
  {
    "laboratory": "277",
    "APA Number": "42",
    "ACC": "885",
    "ACC Name": "LAVERTY PATHOLOGY",
    "Address": "56-60 KARALTA RD",
    "Suburb / Town": "ERINA NSW 2250",
    "From Date": "19/01/2007",
    "To Date": "30/06/2027",
    "latitude": -33.440303,
    "longitude": 151.395052,
    "geocode_method": "Full Address"
  },
  {
    "laboratory": "278",
    "APA Number": "42",
    "ACC": "886",
    "ACC Name": "LAVERTY PATHOLOGY",
    "Address": "PATH SE 1 THE ROCK MED CNTR 16 DAY ST",
    "Suburb / Town": "THE ROCK NSW 2655",
    "From Date": "01/07/2008",
    "To Date": "30/06/2027",
    "latitude": -35.268785,
    "longitude": 147.118891,
    "geocode_method": "Full Address"
  },
  {
    "laboratory": "279",
    "APA Number": "42",
    "ACC": "",
    "ACC Name": "LAVERTY PATHOLOGY",
    "Address": "ISABELLA PLAINS SHOP CNTR U 3 131 ELLERSTON AVE",
    "Suburb / Town": "ISABELLA PLAINS ACT 290509/02/2007",
    "From Date": "",
    "To Date": "30/06/2027",
    "latitude": -35.428498,
    "longitude": 149.091038,
    "geocode_method": "Full Address"
  },
  {
    "laboratory": "280",
    "APA Number": "42",
    "ACC": "891",
    "ACC Name": "QML PATHOLOGY",
    "Address": "PATH RM MT WARREN PARK M/C 20- 30 MT WARREN BVD",
    "Suburb / Town": "MT WARREN PARK QLD 4207",
    "From Date": "19/02/2007",
    "To Date": "30/06/2027",
    "latitude": -27.723167,
    "longitude": 153.194791,
    "geocode_method": "Full Address"
  },
  {
    "laboratory": "281",
    "APA Number": "42",
    "ACC": "898",
    "ACC Name": "DOREVITCH PATHOLOGY",
    "Address": "PATH RM WICKLOW AVE M/C 65-67 WICKLOW AVE",
    "Suburb / Town": "CROYDON VIC 3136",
    "From Date": "13/03/2007",
    "To Date": "30/06/2027",
    "latitude": -37.795378,
    "longitude": 145.279161,
    "geocode_method": "Full Address"
  },